[
 { "nom": "Bellerive-sur-Allier" , "lat": 46.1165767 , "lon": 3.4045483 , "pop": 8943 },
 { "nom": "Brôut-Vernet" , "lat": 46.1895836 , "lon": 3.2739471 , "pop": 1217 },
 { "nom": "Brugheas" , "lat": 46.0775819 , "lon": 3.3676109 , "pop": 1564 },
 { "nom": "Cognat-Lyonne" , "lat": 46.1083334 , "lon": 3.3116101 , "pop": 706 },
 { "nom": "Escurolles" , "lat": 46.1425029 , "lon": 3.2663409 , "pop": 804 },
 { "nom": "Espinasse-Vozelle" , "lat": 46.1267538 , "lon": 3.3239311 , "pop": 995 },
 { "nom": "Hauterive" , "lat": 46.0882304 , "lon": 3.4425306 , "pop": 1186 },
 { "nom": "Saint-Didier-la-Forêt" , "lat": 46.2246937 , "lon": 3.3451144 , "pop": 399 },
 { "nom": "Saint-Pont" , "lat": 46.1614462 , "lon": 3.2985709 , "pop": 689 },
 { "nom": "Serbannes" , "lat": 46.1001890 , "lon": 3.3608736 , "pop": 854 },
 { "nom": "Vendat" , "lat": 46.1636705 , "lon": 3.3531402 , "pop": 2292 },
 { "nom": "Ainay-le-Château" , "lat": 46.7116125 , "lon": 2.6935499 , "pop": 989 },
 { "nom": "Bourbon-l'Archambault" , "lat": 46.5828859 , "lon": 3.0572030 , "pop": 2494 },
 { "nom": "Braize" , "lat": 46.6667444 , "lon": 2.6501393 , "pop": 259 },
 { "nom": "Buxières-les-Mines" , "lat": 46.4690800 , "lon": 2.9601680 , "pop": 994 },
 { "nom": "Cérilly" , "lat": 46.6175225 , "lon": 2.8202037 , "pop": 1316 },
 { "nom": "Château-sur-Allier" , "lat": 46.7655069 , "lon": 3.0290157 , "pop": 160 },
 { "nom": "Couleuvre" , "lat": 46.6721143 , "lon": 2.9075593 , "pop": 580 },
 { "nom": "Couzon" , "lat": 46.6584495 , "lon": 3.1203265 , "pop": 328 },
 { "nom": "Franchesse" , "lat": 46.6371665 , "lon": 3.0369359 , "pop": 449 },
 { "nom": "Isle-et-Bardais" , "lat": 46.6885951 , "lon": 2.7921473 , "pop": 273 },
 { "nom": "Le Veurdre" , "lat": 46.7555944 , "lon": 3.0410445 , "pop": 475 },
 { "nom": "Le Vilhain" , "lat": 46.5610018 , "lon": 2.7960179 , "pop": 266 },
 { "nom": "Lételon" , "lat": 46.6560553 , "lon": 2.5845216 , "pop": 93 },
 { "nom": "Limoise" , "lat": 46.6758013 , "lon": 3.0521575 , "pop": 175 },
 { "nom": "Lurcy-Lévis" , "lat": 46.7299840 , "lon": 2.9385190 , "pop": 1821 },
 { "nom": "Meaulne-Vitray" , "lat": 46.5988938 , "lon": 2.6136025 , "pop": 906 },
 { "nom": "Neure" , "lat": 46.7463355 , "lon": 2.9805015 , "pop": 202 },
 { "nom": "Pouzy-Mésangy" , "lat": 46.7090648 , "lon": 3.0044059 , "pop": 378 },
 { "nom": "Saint-Aubin-le-Monial" , "lat": 46.5271364 , "lon": 3.0004559 , "pop": 262 },
 { "nom": "Saint-Bonnet-Tronçais" , "lat": 46.6598200 , "lon": 2.6933320 , "pop": 726 },
 { "nom": "Saint-Hilaire" , "lat": 46.4939025 , "lon": 3.0214392 , "pop": 503 },
 { "nom": "Saint-Léopardin-d'Augy" , "lat": 46.6842040 , "lon": 3.1044610 , "pop": 354 },
 { "nom": "Saint-Plaisir" , "lat": 46.6223373 , "lon": 2.9678454 , "pop": 422 },
 { "nom": "Theneuille" , "lat": 46.5855301 , "lon": 2.8626011 , "pop": 340 },
 { "nom": "Urçay" , "lat": 46.6227545 , "lon": 2.5895967 , "pop": 296 },
 { "nom": "Valigny" , "lat": 46.7122683 , "lon": 2.8177094 , "pop": 378 },
 { "nom": "Vieure" , "lat": 46.5004124 , "lon": 2.8754069 , "pop": 277 },
 { "nom": "Ygrande" , "lat": 46.5525332 , "lon": 2.9432765 , "pop": 762 },
 { "nom": "Beaune-d'Allier" , "lat": 46.2807771 , "lon": 2.8844495 , "pop": 296 },
 { "nom": "Bézenet" , "lat": 46.3288906 , "lon": 2.8461278 , "pop": 910 },
 { "nom": "Blomard" , "lat": 46.2896313 , "lon":  2.9767408, "pop": 222 },
 { "nom": "Chamblet" , "lat": 46.3338491 , "lon": 2.7016311 , "pop": 1074 },
 { "nom": "Chappes" , "lat": 46.3880874 , "lon": 2.9264359 , "pop": 220 },
 { "nom": "Chavenon" , "lat": 46.4140018 , "lon": 2.9462905 , "pop": 140 },
 { "nom": "Colombier" , "lat": 46.2718883 , "lon": 2.7935629 , "pop": 327 },
 { "nom": "Commentry" , "lat": 46.2886586 , "lon": 2.7428794 , "pop": 6017 },
 { "nom": "Deneuille-les-Mines" , "lat": 46.3783090 , "lon": 2.7815740 , "pop": 347 },
 { "nom": "Doyet" , "lat": 46.3358155 , "lon": 2.7970614 , "pop": 1109 },
 { "nom": "Hyds" , "lat": 46.2841639 , "lon": 2.8294190 , "pop": 298 },
 { "nom": "Louroux-de-Beaune" , "lat": 46.2928888 , "lon": 2.8546915 , "pop": 191 },
 { "nom": "Malicorne" , "lat": 46.3013282 , "lon": 2.7820606 , "pop": 763 },
 { "nom": "Montmarault" , "lat": 46.3174090 , "lon": 2.9542989 , "pop": 1525 },
 { "nom": "Montvicq" , "lat": 46.3197240 , "lon": 2.8232637 , "pop": 692 },
 { "nom": "Murat" , "lat": 46.4016425 , "lon": 2.9101709 , "pop": 264 },
 { "nom": "Saint-Angel" , "lat": 46.3572750 , "lon": 2.6976130 , "pop": 738 },
 { "nom": "Saint-Bonnet-de-Four" , "lat": 46.3129272 , "lon": 2.9107029 , "pop": 227 },
 { "nom": "Saint-Marcel-en-Murat" , "lat": 46.3216428 , "lon": 3.0086208 , "pop": 128 },
 { "nom": "Saint-Priest-en-Murat" , "lat": 46.3485400 , "lon": 2.9115289 , "pop": 214 },
 { "nom": "Sazeret" , "lat": 46.3394120 , "lon": 2.9553194 , "pop": 140 },
 { "nom": "Verneix" , "lat": 46.3969930 , "lon": 2.6699882 , "pop": 574 },
 { "nom": "Vernusse" , "lat": 46.2670864 , "lon": 2.9776697 , "pop": 149 },
 { "nom": "Villefranche-d'Allier" , "lat": 46.3968307 , "lon": 2.8564455 , "pop": 1238 },
 { "nom": "Bost" , "lat": 46.1791097 , "lon": 3.5176944 , "pop": 183 },
 { "nom": "Creuzier-le-Neuf" , "lat": 46.1814611 , "lon": 3.4520775 , "pop": 1225 },
 { "nom": "Creuzier-le-Vieux" , "lat": 46.1577184 , "lon": 3.4297943 , "pop": 3205 },
 { "nom": "Cusset" , "lat": 46.1311256 , "lon": 3.4565842 , "pop": 13316 },
 { "nom": "Avrilly" , "lat": 46.3332308 , "lon": 3.9808751 , "pop": 144 },
 { "nom": "Beaulon" , "lat": 46.6022260 , "lon": 3.6727800 , "pop": 1649 },
 { "nom": "Chassenard" , "lat": 46.4395749 , "lon": 3.9783212 , "pop": 1023 },
 { "nom": "Chevagnes" , "lat": 46.6104371 , "lon": 3.5508413 , "pop": 630 },
 { "nom": "Chézy" , "lat": 46.6110176 , "lon": 3.4676022 , "pop": 212 },
 { "nom": "Coulanges" , "lat": 46.4848762 , "lon": 3.8581206 , "pop": 285 },
 { "nom": "Diou" , "lat": 46.5337892 , "lon": 3.7456491 , "pop": 1343 },
 { "nom": "Dompierre-sur-Besbre" , "lat": 46.5214269 , "lon": 3.6817918 , "pop": 2959 },
 { "nom": "Gannay-sur-Loire" , "lat": 46.7312573 , "lon": 3.6096240 , "pop": 384 },
 { "nom": "Garnat-sur-Engièvre" , "lat": 46.6335200 , "lon": 3.6631561 , "pop": 653 },
 { "nom": "La Chapelle-aux-Chasses" , "lat": 46.6703406 , "lon": 3.5313685 , "pop": 197 },
 { "nom": "Le Bouchaud" , "lat": 46.3058347 , "lon": 3.8985710 , "pop": 192 },
 { "nom": "Le Donjon" , "lat": 46.3507694 , "lon": 3.7926010 , "pop": 1007 },
 { "nom": "Le Pin" , "lat": 46.4132448 , "lon": 3.8955077 , "pop": 432 },
 { "nom": "Lenax" , "lat": 46.2978610 , "lon": 3.8160537 , "pop": 257 },
 { "nom": "Loddes" , "lat": 46.2885259 , "lon": 3.7666101 , "pop": 166 },
 { "nom": "Luneau" , "lat": 46.3653730 , "lon": 3.9534420 , "pop": 277 },
 { "nom": "Lusigny" , "lat": 46.5881916 , "lon": 3.4903491 , "pop": 1620 },
 { "nom": "Molinet" , "lat": 46.4659610 , "lon": 3.9362500 , "pop": 1104 },
 { "nom": "Monétay-sur-Loire" , "lat": 46.4299297 , "lon": 3.8167853 , "pop": 250 },
 { "nom": "Montaiguët-en-Forez" , "lat": 46.2703030 , "lon": 3.8008390 , "pop": 280 },
 { "nom": "Montcombroux-les-Mines" , "lat": 46.3523130 , "lon": 3.6886210 , "pop": 295 },
 { "nom": "Neuilly-en-Donjon" , "lat": 46.3448851 , "lon": 3.8863752 , "pop": 198 },
 { "nom": "Paray-le-Frésil" , "lat": 46.6556037 , "lon": 3.6117002 , "pop": 376 },
 { "nom": "Pierrefitte-sur-Loire" , "lat": 46.5061330 , "lon": 3.8169670 , "pop": 506 },
 { "nom": "Saint-Didier-en-Donjon" , "lat": 46.3871261 , "lon": 3.8597415 , "pop": 245 },
 { "nom": "Saint-Léger-sur-Vouzance" , "lat": 46.4102216 , "lon": 3.9367776 , "pop": 258 },
 { "nom": "Saint-Martin-des-Lais" , "lat": 46.6679013 , "lon": 3.6546097 , "pop": 122 },
 { "nom": "Saint-Pourçain-sur-Besbre" , "lat": 46.4758310 , "lon": 3.6400920 , "pop": 371 },
 { "nom": "Saligny-sur-Roudon" , "lat": 46.4679450 , "lon": 3.7497173 , "pop": 641 },
 { "nom": "Thiel-sur-Acolin" , "lat": 46.5230190 , "lon": 3.5812480 , "pop": 1027 },
 { "nom": "Vaumas" , "lat": 46.4464557 , "lon": 3.6303341 , "pop": 528 },
 { "nom": "Barberier" , "lat": 46.2163474 , "lon": 3.2488197 , "pop": 150 },
 { "nom": "Bègues" , "lat": 46.1267015 , "lon": 3.1561273 , "pop": 232 },
 { "nom": "Bellenaves" , "lat": 46.1999394 , "lon": 3.0795814 , "pop": 983 },
 { "nom": "Biozat" , "lat": 46.0775470 , "lon": 3.2708499 , "pop": 933 },
 { "nom": "Chantelle" , "lat": 46.2374445 , "lon": 3.1512851 , "pop": 1131 },
 { "nom": "Chareil-Cintrat" , "lat": 46.2700239 , "lon": 3.2216308 , "pop": 388 },
 { "nom": "Charmes" , "lat": 46.0759201 , "lon": 3.2518149 , "pop": 369 },
 { "nom": "Charroux" , "lat": 46.1854420 , "lon": 3.1625980 , "pop": 335 },
 { "nom": "Chezelle" , "lat": 46.2184990 , "lon": 3.1235723 , "pop": 158 },
 { "nom": "Chirat-l'Église" , "lat": 46.2392487 , "lon": 3.0329679 , "pop": 129 },
 { "nom": "Chouvigny" , "lat": 46.1269410 , "lon": 2.9900670 , "pop": 232 },
 { "nom": "Coutansouze" , "lat": 46.2173284 , "lon": 3.0086720 , "pop": 154 },
 { "nom": "Deneuille-lès-Chantelle" , "lat": 46.2449854 , "lon": 3.1409527 , "pop": 94 },
 { "nom": "Ébreuil" , "lat": 46.1156430 , "lon": 3.0870750 , "pop": 1306 },
 { "nom": "Échassières" , "lat": 46.1830430 , "lon": 2.9345560 , "pop": 364 },
 { "nom": "Étroussat" , "lat": 46.2192307 , "lon": 3.2213768 , "pop": 649 },
 { "nom": "Fleuriel" , "lat": 46.2815024 , "lon": 3.1773936 , "pop": 336 },
 { "nom": "Fourilles" , "lat": 46.2411890 , "lon": 3.1955740 , "pop": 195 },
 { "nom": "Gannat" , "lat": 46.1000040 , "lon": 3.1975875 , "pop": 5610 },
 { "nom": "Jenzat" , "lat": 46.1624624 , "lon": 3.1953412 , "pop": 517 },
 { "nom": "Lalizolle" , "lat": 46.1565913 , "lon": 3.0011422 , "pop": 399 },
 { "nom": "Le Mayet-d'École" , "lat": 46.1684870 , "lon": 3.2409830 , "pop": 304 },
 { "nom": "Louroux-de-Bouble" , "lat": 46.2248154 , "lon": 2.9798830 , "pop": 226 },
 { "nom": "Mazerier" , "lat": 46.1248220 , "lon": 3.1898000 , "pop": 317 },
 { "nom": "Monestier" , "lat": 46.2557240 , "lon": 3.1136980 , "pop": 291 },
 { "nom": "Monteignet-sur-l'Andelot" , "lat": 46.1183777 , "lon": 3.2564633 , "pop": 266 },
 { "nom": "Nades" , "lat": 46.1584794 , "lon": 2.9694519 , "pop": 162 },
 { "nom": "Naves" , "lat": 46.1765750 , "lon": 3.1109650 , "pop": 146 },
 { "nom": "Poëzat" , "lat": 46.0775861 , "lon": 3.2247595 , "pop": 152 },
 { "nom": "Saint-Bonnet-de-Rochefort" , "lat": 46.1477290 , "lon": 3.1368740 , "pop": 713 },
 { "nom": "Saint-Germain-de-Salles" , "lat": 46.1797180 , "lon": 3.2142570 , "pop": 434 },
 { "nom": "Saint-Priest-d'Andelot" , "lat": 46.0717810 , "lon": 3.1682760 , "pop": 146 },
 { "nom": "Saulzet" , "lat": 46.1367840 , "lon": 3.2174780 , "pop": 396 },
 { "nom": "Sussat" , "lat": 46.1524475 , "lon": 3.0642897 , "pop": 107 },
 { "nom": "Target" , "lat": 46.2894067 , "lon": 3.0610209 , "pop": 244 },
 { "nom": "Taxat-Senat" , "lat": 46.2025308 , "lon": 3.1390516 , "pop": 222 },
 { "nom": "Ussel-d'Allier" , "lat": 46.2078000 , "lon": 3.1904610 , "pop": 166 },
 { "nom": "Valignat" , "lat": 46.1762130 , "lon": 3.0750070 , "pop": 64 },
 { "nom": "Veauce" , "lat": 46.1650588 , "lon": 3.0567694 , "pop": 40 },
 { "nom": "Vicq" , "lat": 46.1470710 , "lon": 3.0924768 , "pop": 291 },
 { "nom": "Voussac" , "lat": 46.3274283 , "lon": 3.0627000 , "pop": 464 },
 { "nom": "Archignat" , "lat": 46.3719718 , "lon": 2.4248934 , "pop": 321 },
 { "nom": "Audes" , "lat": 46.4576680 , "lon": 2.5587383 , "pop": 402 },
 { "nom": "Bizeneuille" , "lat": 46.4079840 , "lon": 2.7371780 , "pop": 296 },
 { "nom": "Chambérat" , "lat": 46.4187323 , "lon": 2.4130401 , "pop": 277 },
 { "nom": "Chazemais" , "lat": 46.4829535 , "lon": 2.5256683 , "pop": 504 },
 { "nom": "Cosne-d'Allier" , "lat": 46.4750500 , "lon": 2.8306420 , "pop": 2006 },
 { "nom": "Courçais" , "lat": 46.4710938 , "lon": 2.4356727 , "pop": 314 },
 { "nom": "Estivareilles" , "lat": 46.4250140 , "lon": 2.6181650 , "pop": 1119 },
 { "nom": "Haut-Bocage" , "lat": 46.4784735 , "lon": 2.6526321 , "pop": 841 },
 { "nom": "Hérisson" , "lat": 46.5091544 , "lon": 2.7115675 , "pop": 555 },
 { "nom": "Huriel" , "lat": 46.3743477 , "lon": 2.4768131 , "pop": 2536 },
 { "nom": "La Chapelaude" , "lat": 46.4207179 , "lon": 2.5048203 , "pop": 938 },
 { "nom": "Le Brethon" , "lat": 46.5706063 , "lon": 2.7178133 , "pop": 324 },
 { "nom": "Louroux-Bourbonnais" , "lat": 46.5352954 , "lon": 2.8409776 , "pop": 205 },
 { "nom": "Mesples" , "lat": 46.4332972 , "lon": 2.3596754 , "pop": 129 },
 { "nom": "Nassigny" , "lat": 46.4971833 , "lon": 2.6049988 , "pop": 194 },
 { "nom": "Reugny" , "lat": 46.4614782 , "lon": 2.6153970 , "pop": 266 },
 { "nom": "Saint-Caprais" , "lat": 46.5509227 , "lon": 2.7367876 , "pop": 103 },
 { "nom": "Saint-Désiré" , "lat": 46.4972287 , "lon": 2.4314681 , "pop": 424 },
 { "nom": "Saint-Éloy-d'Allier" , "lat": 46.4873434 , "lon": 2.3578610 , "pop": 58 },
 { "nom": "Saint-Martinien" , "lat": 46.3364460 , "lon": 2.4707450 , "pop": 597 },
 { "nom": "Saint-Palais" , "lat": 46.4396299 , "lon": 2.3000879 , "pop": 163 },
 { "nom": "Saint-Sauvier" , "lat": 46.3865560 , "lon": 2.3304800 , "pop": 320 },
 { "nom": "Sauvagny" , "lat": 46.4446292 , "lon": 2.8190294 , "pop": 82 },
 { "nom": "Tortezais" , "lat": 46.4525206 , "lon": 2.8580772 , "pop": 172 },
 { "nom": "Treignat" , "lat": 46.3494699 , "lon": 2.3405030 , "pop": 434 },
 { "nom": "Vallon-en-Sully" , "lat": 46.5363860 , "lon": 2.6069560 , "pop": 1457 },
 { "nom": "Venas" , "lat": 46.4769522 , "lon": 2.7644367 , "pop": 217 },
 { "nom": "Viplaix" , "lat": 46.4610127 , "lon": 2.3785168 , "pop": 293 },
 { "nom": "Andelaroche" , "lat": 46.2551100 , "lon": 3.7485895 , "pop": 214 },
 { "nom": "Arfeuilles" , "lat": 46.1564614 , "lon": 3.7272859 , "pop": 594 },
 { "nom": "Arronnes" , "lat": 46.0597469 , "lon": 3.5688239 , "pop": 378 },
 { "nom": "Barrais-Bussolles" , "lat": 46.2911117 , "lon": 3.7153673 , "pop": 185 },
 { "nom": "Billezois" , "lat": 46.2108596 , "lon": 3.5736141 , "pop": 363 },
 { "nom": "Busset" , "lat": 46.0617252 , "lon": 3.5126069 , "pop": 850 },
 { "nom": "Châtel-Montagne" , "lat": 46.1133539 , "lon": 3.6829723 , "pop": 326 },
 { "nom": "Châtelus" , "lat": 46.1941250 , "lon": 3.7338595 , "pop": 119 },
 { "nom": "Droiturier" , "lat": 46.2312839 , "lon": 3.7172274 , "pop": 364 },
 { "nom": "Ferrières-sur-Sichon" , "lat": 46.0252409 , "lon": 3.6489842 , "pop": 496 },
 { "nom": "Isserpent" , "lat": 46.1624416 , "lon": 3.6083784 , "pop": 560 },
 { "nom": "La Chabanne" , "lat": 46.0219629 , "lon": 3.7531425 , "pop": 169 },
 { "nom": "La Chapelle" , "lat": 46.0911374 , "lon": 3.5726320 , "pop": 399 },
 { "nom": "La Guillermie" , "lat": 45.9833909 , "lon": 3.6393411 , "pop": 123 },
 { "nom": "Lapalisse" , "lat": 46.2484017 , "lon": 3.6371291 , "pop": 3138 },
 { "nom": "Laprugne" , "lat": 45.9864222 , "lon": 3.7418127 , "pop": 308 },
 { "nom": "Lavoine" , "lat": 45.9781067 , "lon": 3.6972868 , "pop": 153 },
 { "nom": "Le Breuil" , "lat": 46.1822372 , "lon": 3.6581235 , "pop": 524 },
 { "nom": "Le Mayet-de-Montagne" , "lat": 46.0722748 , "lon": 3.6682621 , "pop": 1383 },
 { "nom": "Le Vernet" , "lat": 46.1103300 , "lon": 3.4629380 , "pop": 1919 },
 { "nom": "Mariol" , "lat": 46.0208267 , "lon": 3.4969148 , "pop": 679 },
 { "nom": "Molles" , "lat": 46.1082855 , "lon": 3.5588328 , "pop": 904 },
 { "nom": "Nizerolles" , "lat": 46.0980492 , "lon": 3.6388195 , "pop": 282 },
 { "nom": "Périgny" , "lat": 46.2507466 , "lon": 3.5543831 , "pop": 484 },
 { "nom": "Saint-Christophe-en-Bourbonnais" , "lat": 46.1667056 , "lon": 3.5760722 , "pop": 442 },
 { "nom": "Saint-Clément" , "lat": 46.0621466 , "lon": 3.7049898 , "pop": 284 },
 { "nom": "Saint-Étienne-de-Vicq" , "lat": 46.1766311 , "lon": 3.5334888 , "pop": 523 },
 { "nom": "Saint-Nicolas-des-Biefs" , "lat": 46.0596910 , "lon": 3.7827820 , "pop": 146 },
 { "nom": "Saint-Pierre-Laval" , "lat": 46.2020225 , "lon": 3.7797911 , "pop": 373 },
 { "nom": "Saint-Prix" , "lat": 46.2321471 , "lon": 3.6508833 , "pop": 776 },
 { "nom": "Servilly" , "lat": 46.2782389 , "lon": 3.5868303 , "pop": 271 },
 { "nom": "Domérat" , "lat": 46.3607378 , "lon": 2.5328467 , "pop": 8622 },
 { "nom": "Saint-Victor" , "lat": 46.3948379 , "lon": 2.6077537 , "pop": 2100 },
 { "nom": "Vaux" , "lat": 46.4263383 , "lon": 2.5973181 , "pop": 1165 },
 { "nom": "Désertines" , "lat": 46.3545789 , "lon": 2.6169937 , "pop": 4259 },
 { "nom": "Arpheuilles-Saint-Priest" , "lat": 46.2246338 , "lon": 2.6780650 , "pop": 383 },
 { "nom": "Durdat-Larequille" , "lat": 46.2514863 , "lon": 2.7015324 , "pop": 1280 },
 { "nom": "La Celle" , "lat": 46.2287635 , "lon": 2.7850833 , "pop": 398 },
 { "nom": "La Petite-Marche" , "lat": 46.1933209 , "lon": 2.5716571 , "pop": 167 },
 { "nom": "Marcillat-en-Combraille" , "lat": 46.1670520 , "lon": 2.6312640 , "pop": 900 },
 { "nom": "Mazirat" , "lat": 46.2233061 , "lon": 2.5404842 , "pop": 273 },
 { "nom": "Néris-les-Bains" , "lat": 46.2886880 , "lon": 2.6597700 , "pop": 2368 },
 { "nom": "Ronnet" , "lat": 46.2051971 , "lon": 2.6995466 , "pop": 162 },
 { "nom": "Saint-Fargeol" , "lat": 46.1375934 , "lon": 2.6286590 , "pop": 187 },
 { "nom": "Saint-Genest" , "lat": 46.2655805 , "lon": 2.5929254 , "pop": 386 },
 { "nom": "Saint-Marcel-en-Marcillat" , "lat": 46.1449929 , "lon": 2.5900975 , "pop": 130 },
 { "nom": "Sainte-Thérence" , "lat": 46.2420431 , "lon": 2.5610051 , "pop": 179 },
 { "nom": "Terjat" , "lat": 46.2038663 , "lon": 2.6158354 , "pop": 180 },
 { "nom": "Villebret" , "lat": 46.2667353 , "lon": 2.6389315 , "pop": 1335 },
 { "nom": "Lamaids" , "lat": 46.3030610 , "lon": 2.4313310 , "pop": 210 },
 { "nom": "Lavault-Sainte-Anne" , "lat": 46.3091886 , "lon": 2.5987330 , "pop": 1139 },
 { "nom": "Lignerolles" , "lat": 46.2802006 , "lon": 2.5670171 , "pop": 760 },
 { "nom": "Montluçon" , "lat": 46.3414246 , "lon": 2.6018497 , "pop": 33147 },
 { "nom": "Prémilhat" , "lat": 46.3131210 , "lon": 2.5357252 , "pop": 2540 },
 { "nom": "Quinssaines" , "lat": 46.3280311 , "lon": 2.5115226 , "pop": 1528 },
 { "nom": "Teillet-Argenty" , "lat": 46.2691478 , "lon": 2.5320049 , "pop": 555 },
 { "nom": "Aubigny" , "lat": 46.6818103 , "lon": 3.1643092 , "pop": 146 },
 { "nom": "Avermes" , "lat": 46.5913448 , "lon": 3.3093575 , "pop": 4074 },
 { "nom": "Bagneux" , "lat": 46.6585342 , "lon": 3.2057046 , "pop": 329 },
 { "nom": "Coulandon" , "lat": 46.5521569 , "lon": 3.2614878 , "pop": 645 },
 { "nom": "Montilly" , "lat": 46.6120949 , "lon": 3.2505710 , "pop": 488 },
 { "nom": "Neuvy" , "lat": 46.5612906 , "lon": 3.2909160 , "pop": 1475 },
 { "nom": "Bert" , "lat": 46.3246159 , "lon": 3.7068719 , "pop": 274 },
 { "nom": "Bessay-sur-Allier" , "lat": 46.4414790 , "lon": 3.3630190 , "pop": 1382 },
 { "nom": "Chapeau" , "lat": 46.4886102 , "lon": 3.5228768 , "pop": 231 },
 { "nom": "Châtelperron" , "lat": 46.3993331 , "lon": 3.6367030 , "pop": 130 },
 { "nom": "Chavroches" , "lat": 46.3548910 , "lon": 3.5869430 , "pop": 268 },
 { "nom": "Cindré" , "lat": 46.3268302 , "lon": 3.5648947 , "pop": 276 },
 { "nom": "Gouise" , "lat": 46.4112818 , "lon": 3.4306952 , "pop": 219 },
 { "nom": "Jaligny-sur-Besbre" , "lat": 46.3802783 , "lon": 3.5943849 , "pop": 559 },
 { "nom": "La Ferté-Hauterive" , "lat": 46.3968410 , "lon": 3.3409010 , "pop": 254 },
 { "nom": "Liernolles" , "lat": 46.3951273 , "lon": 3.7517352 , "pop": 193 },
 { "nom": "Mercy" , "lat": 46.4585252 , "lon": 3.5195563 , "pop": 244 },
 { "nom": "Montbeugny" , "lat": 46.5286600 , "lon": 3.4888820 , "pop": 638 },
 { "nom": "Moulins" , "lat": 46.5677199 , "lon": 3.3337698 , "pop": 19206 },
 { "nom": "Neuilly-le-Réal" , "lat": 46.4644120 , "lon": 3.4318260 , "pop": 1435 },
 { "nom": "Saint-Gérand-de-Vaux" , "lat": 46.3803870 , "lon": 3.4000760 , "pop": 408 },
 { "nom": "Saint-Léon" , "lat": 46.4030208 , "lon": 3.6872356 , "pop": 530 },
 { "nom": "Saint-Voir" , "lat": 46.4065006 , "lon": 3.5193207 , "pop": 201 },
 { "nom": "Sorbier" , "lat": 46.3651262 , "lon": 3.6612303 , "pop": 318 },
 { "nom": "Thionne" , "lat": 46.4051498 , "lon": 3.5754342 , "pop": 291 },
 { "nom": "Toulon-sur-Allier" , "lat": 46.5180120 , "lon": 3.3603130 , "pop": 1166 },
 { "nom": "Treteau" , "lat": 46.3688248 , "lon": 3.5238396 , "pop": 520 },
 { "nom": "Trézelles" , "lat": 46.3285773 , "lon": 3.5931179 , "pop": 391 },
 { "nom": "Varennes-sur-Tèche" , "lat": 46.3257404 , "lon": 3.6296314 , "pop": 228 },
 { "nom": "Bayet" , "lat": 46.2484835 , "lon": 3.2678341 , "pop": 672 },
 { "nom": "Billy" , "lat": 46.2367289 , "lon": 3.4302520 , "pop": 817 },
 { "nom": "Boucé" , "lat": 46.3176461 , "lon": 3.4925454 , "pop": 507 },
 { "nom": "Créchy" , "lat": 46.2610571 , "lon": 3.4252746 , "pop": 428 },
 { "nom": "Langy" , "lat": 46.2672183 , "lon": 3.4706596 , "pop": 280 },
 { "nom": "Loriges" , "lat": 46.2685370 , "lon": 3.3477640 , "pop": 350 },
 { "nom": "Louchy-Montfand" , "lat": 46.3077873 , "lon": 3.2456416 , "pop": 397 },
 { "nom": "Magnet" , "lat": 46.2137064 , "lon": 3.5046671 , "pop": 1053 },
 { "nom": "Marcenat" , "lat": 46.2347642 , "lon": 3.3964680 , "pop": 386 },
 { "nom": "Montaigu-le-Blin" , "lat": 46.2949315 , "lon": 3.5107936 , "pop": 300 },
 { "nom": "Montoldre" , "lat": 46.3347239 , "lon": 3.4477005 , "pop": 590 },
 { "nom": "Montord" , "lat": 46.2916780 , "lon": 3.2306010 , "pop": 211 },
 { "nom": "Paray-sous-Briailles" , "lat": 46.2901452 , "lon": 3.3649139 , "pop": 616 },
 { "nom": "Rongères" , "lat": 46.2941643 , "lon": 3.4509746 , "pop": 555 },
 { "nom": "Saint-Félix" , "lat": 46.2266840 , "lon": 3.4804156 , "pop": 279 },
 { "nom": "Saint-Gérand-le-Puy" , "lat": 46.2580536 , "lon": 3.5117444 , "pop": 963 },
 { "nom": "Saint-Loup" , "lat": 46.3522883 , "lon": 3.3800924 , "pop": 575 },
 { "nom": "Saint-Pourçain-sur-Sioule" , "lat": 46.3067821 , "lon": 3.2935948 , "pop": 4884 },
 { "nom": "Sanssat" , "lat": 46.2554655 , "lon": 3.4745809 , "pop": 276 },
 { "nom": "Saulcet" , "lat": 46.3248341 , "lon": 3.2633341 , "pop": 657 },
 { "nom": "Seuillet" , "lat": 46.2032529 , "lon": 3.4710099 , "pop": 479 },
 { "nom": "Varennes-sur-Allier" , "lat": 46.3121282 , "lon": 3.4048329 , "pop": 3459 },
 { "nom": "Agonges" , "lat": 46.6058087 , "lon": 3.1588043 , "pop": 300 },
 { "nom": "Autry-Issards" , "lat": 46.5489134 , "lon": 3.1357579 , "pop": 313 },
 { "nom": "Besson" , "lat": 46.4699196 , "lon": 3.2633244 , "pop": 728 },
 { "nom": "Bransat" , "lat": 46.3277294 , "lon": 3.2322995 , "pop": 530 },
 { "nom": "Bresnay" , "lat": 46.4416663 , "lon": 3.2499937 , "pop": 386 },
 { "nom": "Bressolles" , "lat": 46.5315387 , "lon": 3.3155736 , "pop": 1143 },
 { "nom": "Cesset" , "lat": 46.2950149 , "lon": 3.2160133 , "pop": 430 },
 { "nom": "Châtel-de-Neuvre" , "lat": 46.4064320 , "lon": 3.3110700 , "pop": 563 },
 { "nom": "Châtillon" , "lat": 46.4745031 , "lon":3.1325463 , "pop": 317 },
 { "nom": "Chemilly" , "lat": 46.4877480 , "lon": 3.3125442 , "pop": 580 },
 { "nom": "Contigny" , "lat": 46.3530710 , "lon": 3.3043070 , "pop": 573 },
 { "nom": "Cressanges" , "lat": 46.4456324 , "lon": 3.1610168 , "pop": 644 },
 { "nom": "Deux-Chaises" , "lat": 46.3802914 , "lon": 3.0372872 , "pop": 377 },
 { "nom": "Gipcy" , "lat": 46.5025348 , "lon": 3.0549788 , "pop": 235 },
 { "nom": "Laféline" , "lat": 46.3495220 , "lon": 3.1674522 , "pop": 173 },
 { "nom": "Le Montet" , "lat": 46.4089405 , "lon": 3.0554355 , "pop": 472 },
 { "nom": "Le Theil" , "lat": 46.3537074 , "lon": 3.1328656 , "pop": 387 },
 { "nom": "Marigny" , "lat": 46.5813915 , "lon": 3.2098293 , "pop": 200 },
 { "nom": "Meillard" , "lat": 46.3893289 , "lon": 3.2347953 , "pop": 303 },
 { "nom": "Meillers" , "lat": 46.5068051 , "lon": 3.0925061 , "pop": 129 },
 { "nom": "Monétay-sur-Allier" , "lat": 46.3812950 , "lon": 3.3012340 , "pop": 536 },
 { "nom": "Noyant-d'Allier" , "lat": 46.4800088 , "lon": 3.1248955 , "pop": 602 },
 { "nom": "Rocles" , "lat": 46.4237078 , "lon": 3.0313124 , "pop": 326 },
 { "nom": "Saint-Menoux" , "lat": 46.5850015 , "lon": 3.1579514 , "pop": 1116 },
 { "nom": "Saint-Sornin" , "lat": 46.4105251 , "lon": 3.0164356 , "pop": 220 },
 { "nom": "Souvigny" , "lat": 46.5334552 , "lon": 3.1923465 , "pop": 1698 },
 { "nom": "Treban" , "lat": 46.4045760 , "lon": 3.1742710 , "pop": 370 },
 { "nom": "Tronget" , "lat": 46.4205390 , "lon": 3.0662370 , "pop": 925 },
 { "nom": "Verneuil-en-Bourbonnais" , "lat": 46.3457111 , "lon": 3.2520500 , "pop": 239 },
 { "nom": "Charmeil" , "lat": 46.1581688 , "lon": 3.3931670 , "pop": 947 },
 { "nom": "Saint-Germain-des-Fossés" , "lat": 46.2073106 , "lon": 3.4332344 , "pop": 3579 },
 { "nom": "Saint-Rémy-en-Rollat" , "lat": 46.1845654 , "lon": 3.3914098 , "pop": 1554 },
 { "nom": "Abrest" , "lat": 46.0976917 , "lon": 3.4459140 , "pop": 2915 },
 { "nom": "Saint-Yorre" , "lat": 46.0653992 , "lon": 3.4609593 , "pop": 2641 },
 { "nom": "Vichy" , "lat": 46.1313975 , "lon": 3.4260110 , "pop": 25115 },
 { "nom": "Aurouër" , "lat": 46.6877085 , "lon": 3.2993337 , "pop": 400 },
 { "nom": "Gennetines" , "lat": 46.6370056 , "lon": 3.4098921 , "pop": 615 },
 { "nom": "Saint-Ennemond" , "lat": 46.6767864 , "lon": 3.4222083 , "pop": 626 },
 { "nom": "Trévol" , "lat": 46.6294817 , "lon": 3.3064609 , "pop": 1643 },
 { "nom": "Villeneuve-sur-Allier" , "lat": 46.6609330 , "lon": 3.2470300 , "pop": 1024 },
 { "nom": "Yzeure" , "lat": 46.5661419 , "lon": 3.3548703 , "pop": 12897 }
]