[
  { "nom": "Allassac" , "lat": 45.2571866 , "lon": 1.4752337 , "pop": 4081 },
  { "nom": "Donzenac" , "lat": 45.2280251 , "lon": 1.5233515 , "pop": 2733 },
  { "nom": "Estivaux" , "lat": 45.3153417 , "lon": 1.4846572 , "pop": 403 },
  { "nom": "Orgnac-sur-Vézère" , "lat": 45.3311276 , "lon": 1.4407012 , "pop": 325 },
  { "nom": "Perpezac-le-Noir" , "lat": 45.3274211 , "lon": 1.5502034 , "pop": 1270 },
  { "nom": "Sadroc" , "lat": 45.2828930 , "lon": 1.5489738 , "pop": 1010 },
  { "nom": "Saint-Bonnet-l'Enfantier" , "lat": 45.3003668 , "lon": 1.5231086 , "pop": 410 },
  { "nom": "Saint-Pardoux-l'Ortigier" , "lat": 45.2983444 , "lon": 1.5786301 , "pop": 485 },
  { "nom": "Saint-Viance" , "lat": 45.2168545 , "lon": 1.4532919 , "pop": 1892 },
  { "nom": "Sainte-Féréole" , "lat": 45.2285696 , "lon": 1.5827411 , "pop": 2081 },
  { "nom": "Troche" , "lat": 45.3888127 , "lon": 1.4376343 , "pop": 534 },
  { "nom": "Vigeois" , "lat": 45.3790690 , "lon": 1.5162770 , "pop": 1300 },
  { "nom": "Albussac" , "lat": 45.1375406 , "lon": 1.8359128 , "pop": 725 },
  { "nom": "Altillac" , "lat": 44.9766337 , "lon": 1.8475373 , "pop": 824 },
  { "nom": "Argentat-sur-Dordogne" , "lat": 45.0933560 , "lon": 1.9375500 , "pop": 2881 },
  { "nom": "Auriac" , "lat": 45.2041350 , "lon": 2.1473239 , "pop": 216 },
  { "nom": "Bassignac-le-Bas" , "lat": 45.0191130 , "lon": 1.8527276 , "pop": 80 },
  { "nom": "Bassignac-le-Haut" , "lat": 45.2112410 , "lon": 2.0724950 , "pop": 160 },
  { "nom": "Camps-Saint-Mathurin-Léobazel" , "lat": 44.9838115 , "lon": 1.9907554 , "pop": 206 },
  { "nom": "Darazac" , "lat": 45.1750970 , "lon": 2.0840998 , "pop": 154 },
  { "nom": "Forgès" , "lat": 45.1551137 , "lon": 1.8712018 , "pop": 263 },
  { "nom": "Goulles" , "lat": 45.0405203 , "lon": 2.0785493 , "pop": 323 },
  { "nom": "Hautefage" , "lat": 45.0829078 , "lon": 2.0014128 , "pop": 313 },
  { "nom": "La Chapelle-Saint-Géraud" , "lat": 45.0388159 , "lon": 1.9538110 , "pop": 196 },
  { "nom": "Mercœur" , "lat": 45.0148527 , "lon": 1.9472426 , "pop": 228 },
  { "nom": "Monceaux-sur-Dordogne" , "lat": 45.0816875 , "lon": 1.9079683 , "pop": 628 },
  { "nom": "Neuville" , "lat": 45.1113983 , "lon": 1.8306894 , "pop": 201 },
  { "nom": "Reygade" , "lat": 45.0147856 , "lon": 1.9089874 , "pop": 175 },
  { "nom": "Rilhac-Xaintrie" , "lat": 45.1673121 , "lon": 2.1966110 , "pop": 303 },
  { "nom": "Saint-Bonnet-Elvert" , "lat": 45.1618279 , "lon": 1.9033657 , "pop": 234 },
  { "nom": "Saint-Bonnet-les-Tours-de-Merle" , "lat": 45.0598435 , "lon": 2.0623770 , "pop": 41 },
  { "nom": "Saint-Chamant" , "lat": 45.1265567 , "lon": 1.8940972 , "pop": 468 },
  { "nom": "Saint-Cirgues-la-Loutre" , "lat": 45.0791601 , "lon": 2.0971965 , "pop": 188 },
  { "nom": "Saint-Geniez-ô-Merle" , "lat": 45.0829227 , "lon": 2.0638666 , "pop": 95 },
  { "nom": "Saint-Hilaire-Taurieux" , "lat": 45.0663892 , "lon": 1.8444430 , "pop": 91 },
  { "nom": "Saint-Julien-aux-Bois" , "lat": 45.1307977 , "lon": 2.1395271 , "pop": 430 },
  { "nom": "Saint-Julien-le-Pèlerin" , "lat": 45.0183105 , "lon": 2.0794235 , "pop": 115 },
  { "nom": "Saint-Martial-Entraygues" , "lat": 45.1205916 , "lon": 1.9734536 , "pop": 106 },
  { "nom": "Saint-Privat" , "lat": 45.1377326 , "lon": 2.0998363 , "pop": 1034 },
  { "nom": "Saint-Sylvain" , "lat": 45.1755893 , "lon": 1.8755183 , "pop": 131 },
  { "nom": "Servières-le-Château" , "lat": 45.1320240 , "lon": 2.0233108 , "pop": 563 },
  { "nom": "Sexcles" , "lat": 45.0472477 , "lon": 2.0083617 , "pop": 228 },
  { "nom": "Brive-la-Gaillarde" , "lat": 45.1584341 , "lon": 1.5332091 , "pop": 47095 },
  { "nom": "Cosnac" , "lat": 45.1352658 , "lon": 1.5854230 , "pop": 3044 },
  { "nom": "La Chapelle-aux-Brocs" , "lat": 45.1463706 , "lon": 1.6266724 , "pop": 448 },
  { "nom": "Champagnac-la-Noaille" , "lat": 45.3075818 , "lon": 2.0161713 , "pop": 237 },
  { "nom": "Chapelle-Spinasse" , "lat": 45.3586508 , "lon": 2.0419717 , "pop": 114 },
  { "nom": "Chaumeil" , "lat": 45.4557336 , "lon": 1.8814754 , "pop": 164 },
  { "nom": "Égletons" , "lat": 45.4050759 , "lon": 2.0462201 , "pop": 4341 },
  { "nom": "Lafage-sur-Sombre" , "lat": 45.2957319 , "lon": 2.0715948 , "pop": 137 },
  { "nom": "Lapleau" , "lat": 45.2935740 , "lon": 2.1656520 , "pop": 393 },
  { "nom": "Laval-sur-Luzège" , "lat": 45.2483018 , "lon": 2.1606737 , "pop": 103 },
  { "nom": "Marcillac-la-Croisille" , "lat": 45.2713224 , "lon": 2.0283717 , "pop": 857 },
  { "nom": "Montaignac-sur-Doustre" , "lat": 45.3543934 , "lon": 1.9803904 , "pop": 633 },
  { "nom": "Moustier-Ventadour" , "lat": 45.3959905 , "lon": 2.1046149 , "pop": 405 },
  { "nom": "Rosiers-d'Égletons" , "lat": 45.3774296 , "lon": 2.0095713 , "pop": 1083 },
  { "nom": "Saint-Hilaire-Foissac" , "lat": 45.3312306 , "lon": 2.1253225 , "pop": 196 },
  { "nom": "Saint-Merd-de-Lapleau" , "lat": 45.2568749 , "lon": 2.0829707 , "pop": 205 },
  { "nom": "Saint-Yrieix-le-Déjalat" , "lat": 45.4572193 , "lon": 1.9706609 , "pop": 327 },
  { "nom": "Sarran" , "lat": 45.4094584 , "lon": 1.9369973 , "pop": 262 },
  { "nom": "Soursac" , "lat": 45.2758969 , "lon": 2.2001707 , "pop": 526 },
  { "nom": "Vitrac-sur-Montane" , "lat": 45.3764788 , "lon": 1.9359209 , "pop": 222 },
  { "nom": "Bort-les-Orgues" , "lat": 45.3999899 , "lon": 2.4966244 , "pop": 2483 },
  { "nom": "Chirac-Bellevue" , "lat": 45.4513209 , "lon": 2.3052630 , "pop": 272 },
  { "nom": "Confolent-Port-Dieu" , "lat": 45.5426950, "lon": 2.4961990, "pop": 42 },
  { "nom": "Lamazière-Basse" , "lat": 45.3720339 , "lon": 2.1708822 , "pop": 281 },
  { "nom": "Latronche" , "lat": 45.2946899 , "lon": 2.2281905 , "pop": 112 },
  { "nom": "Liginiac" , "lat": 45.4144110 , "lon": 2.3335222 , "pop": 651 },
  { "nom": "Margerides" , "lat": 45.4553991 , "lon": 2.4049585 , "pop": 271 },
  { "nom": "Mestes" , "lat": 45.4932872 , "lon": 2.3087567 , "pop": 341 },
  { "nom": "Monestier-Port-Dieu" , "lat": 45.4930171 , "lon": 2.5010353 , "pop": 132 },
  { "nom": "Neuvic" , "lat": 45.3824490 , "lon": 2.2725440 , "pop": 1567 },
  { "nom": "Palisse" , "lat": 45.4187283 , "lon": 2.2063674 , "pop": 224 },
  { "nom": "Roche-le-Peyroux" , "lat": 45.4224499 , "lon": 2.3804816 , "pop": 107 },
  { "nom": "Saint-Bonnet-près-Bort" , "lat": 45.5030061 , "lon": 2.4159487 , "pop": 188 },
  { "nom": "Saint-Étienne-aux-Clos" , "lat": 45.5686349 , "lon": 2.4606905 , "pop": 246 },
  { "nom": "Saint-Étienne-la-Geneste" , "lat": 45.4473331 , "lon": 2.3451096 , "pop": 87 },
  { "nom": "Saint-Exupéry-les-Roches" , "lat": 45.5156351 , "lon": 2.3706520 , "pop": 591 },
  { "nom": "Saint-Fréjoux" , "lat": 45.5448996 , "lon": 2.3730327 , "pop": 260 },
  { "nom": "Saint-Hilaire-Luc" , "lat": 45.3628094 , "lon": 2.2045630 , "pop": 65 },
  { "nom": "Saint-Pantaléon-de-Lapleau" , "lat": 45.3231759 , "lon": 2.2048211 , "pop": 63 },
  { "nom": "Saint-Victour" , "lat": 45.4650866 , "lon": 2.3817810 , "pop": 199 },
  { "nom": "Sainte-Marie-Lapanouze" , "lat": 45.4306436 , "lon": 2.3406790 , "pop": 64 },
  { "nom": "Sarroux - Saint Julien" , "lat": 45.4155456 , "lon": 2.4019339 , "pop": 866 },
  { "nom": "Sérandon" , "lat": 45.3601850 , "lon": 2.3373430 , "pop": 343 },
  { "nom": "Thalamy" , "lat": 45.5104016 , "lon": 2.4603931 , "pop": 107 },
  { "nom": "Valiergues" , "lat": 45.4775544 , "lon": 2.2920192 , "pop": 157 },
  { "nom": "Veyrières" , "lat": 45.4834730 , "lon": 2.3986368 , "pop": 83 },
  { "nom": "Dampniat" , "lat": 45.1681500 , "lon": 1.6327270 , "pop": 716 },
  { "nom": "Malemort" , "lat": 45.1635213 , "lon": 1.5686417 , "pop": 8239 },
  { "nom": "Ussac" , "lat": 45.1870698 , "lon": 1.5069652 , "pop": 4322 },
  { "nom": "Varetz" , "lat": 45.1930405 , "lon": 1.4501772 , "pop": 2409 },
  { "nom": "Albignac" , "lat": 45.1392459 , "lon": 1.6778724 , "pop": 236 },
  { "nom": "Astaillac" , "lat": 44.9514820 , "lon": 1.8314520 , "pop": 204 },
  { "nom": "Aubazines" , "lat": 45.1743317 , "lon": 1.6710422 , "pop": 856 },
  { "nom": "Beaulieu-sur-Dordogne" , "lat": 44.9785342 , "lon": 1.8377955 , "pop": 1310 },
  { "nom": "Beynat" , "lat": 45.1238260 , "lon": 1.7232260 , "pop": 1318 },
  { "nom": "Bilhac" , "lat": 44.9423723 , "lon": 1.7738684 , "pop": 242 },
  { "nom": "Branceilles" , "lat": 45.0109863 , "lon": 1.7095334 , "pop": 279 },
  { "nom": "Chauffour-sur-Vell" , "lat": 45.0181471 , "lon": 1.6596274 , "pop": 408 },
  { "nom": "Chenailler-Mascheix" , "lat": 45.0542717 , "lon": 1.8405854 , "pop": 215 },
  { "nom": "Collonges-la-Rouge" , "lat": 45.0602569 , "lon": 1.6546300 , "pop": 478 },
  { "nom": "Curemonte" , "lat": 45.0011628 , "lon": 1.7431605 , "pop": 219 },
  { "nom": "La Chapelle-aux-Saints" , "lat": 44.9873426 , "lon": 1.7257232 , "pop": 257 },
  { "nom": "Lagleygeolle" , "lat": 45.0781580 , "lon": 1.6962882 , "pop": 225 },
  { "nom": "Lanteuil" , "lat": 45.1296148 , "lon": 1.6595076 , "pop": 517 },
  { "nom": "Le Pescher" , "lat": 45.0702241 , "lon": 1.7382265 , "pop": 365 },
  { "nom": "Ligneyrac" , "lat": 45.0523331 , "lon": 1.6198285 , "pop": 290 },
  { "nom": "Liourdes" , "lat": 44.9294759 , "lon": 1.8110468 , "pop": 271 },
  { "nom": "Lostanges" , "lat": 45.0616110 , "lon": 1.7634900 , "pop": 152 },
  { "nom": "Marcillac-la-Croze" , "lat": 45.0344569 , "lon": 1.7434068 , "pop": 190 },
  { "nom": "Ménoire" , "lat": 45.1002832 , "lon": 1.7937664 , "pop": 132 },
  { "nom": "Meyssac" , "lat": 45.0559250 , "lon": 1.6743520 , "pop": 1310 },
  { "nom": "Noailhac" , "lat": 45.0728488 , "lon": 1.6176093 , "pop": 348 },
  { "nom": "Nonards" , "lat": 45.0251091 , "lon": 1.7948449 , "pop": 482 },
  { "nom": "Palazinges" , "lat": 45.1592705 , "lon": 1.6944246 , "pop": 162 },
  { "nom": "Puy-d'Arnac" , "lat": 45.0298211 , "lon": 1.7830859 , "pop": 296 },
  { "nom": "Queyssac-les-Vignes" , "lat": 44.9660607 , "lon": 1.7693933 , "pop": 235 },
  { "nom": "Saillac" , "lat": 45.0368509 , "lon": 1.6392435 , "pop": 214 },
  { "nom": "Saint-Bazile-de-Meyssac" , "lat": 45.0502215 , "lon": 1.7237770 , "pop": 142 },
  { "nom": "Saint-Julien-Maumont" , "lat": 45.0378216 , "lon": 1.7056878 , "pop": 184 },
  { "nom": "Sérilhac" , "lat": 45.0887894 , "lon": 1.7265261 , "pop": 275 },
  { "nom": "Sioniac" , "lat": 44.9755732 , "lon": 1.8190209 , "pop": 246 },
  { "nom": "Tudeils" , "lat": 45.0500894 , "lon": 1.7939480 , "pop": 268 },
  { "nom": "Végennes" , "lat": 44.9814330 , "lon": 1.7388360 , "pop": 171 },
  { "nom": "Bar" , "lat": 45.3449831 , "lon": 1.8142887 , "pop": 311 },
  { "nom": "Chameyrat" , "lat": 45.2338807 , "lon": 1.6973951 , "pop": 1481 },
  { "nom": "Corrèze" , "lat": 45.3727224 , "lon": 1.8743978 , "pop": 1171 },
  { "nom": "Favars" , "lat": 45.2630277 , "lon": 1.6777186 , "pop": 1121 },
  { "nom": "Gimel-les-Cascades" , "lat": 45.2992750 , "lon": 1.8512795 , "pop": 755 },
  { "nom": "Les Angles-sur-Corrèze" , "lat": 45.3071836 , "lon": 1.7962858 , "pop": 125 },
  { "nom": "Meyrignac-l'Église" , "lat": 45.4003552 , "lon": 1.8526839 , "pop": 64 },
  { "nom": "Naves" , "lat": 45.3126578 , "lon": 1.7680371 , "pop": 2281 },
  { "nom": "Orliac-de-Bar" , "lat": 45.3601780 , "lon": 1.8012298 , "pop": 256 },
  { "nom": "Saint-Augustin" , "lat": 45.4246075 , "lon": 1.8362337 , "pop": 427 },
  { "nom": "Saint-Germain-les-Vergnes" , "lat": 45.2737060 , "lon": 1.6349290 , "pop": 1153 },
  { "nom": "Saint-Hilaire-Peyroux" , "lat": 45.2134379 , "lon": 1.6489150 , "pop": 974 },
  { "nom": "Saint-Mexant" , "lat": 45.2852000 , "lon": 1.6575170 , "pop": 1330 },
  { "nom": "Alleyrat" , "lat": 45.5768067 , "lon": 2.2149625 , "pop": 98 },
  { "nom": "Ambrugeat" , "lat": 45.5264720 , "lon": 2.1184940 , "pop": 213 },
  { "nom": "Bellechassagne" , "lat": 45.6442244 , "lon": 2.2263473 , "pop": 102 },
  { "nom": "Bonnefond" , "lat": 45.5310231 , "lon": 1.9830154 , "pop": 115 },
  { "nom": "Bugeat" , "lat": 45.5975723 , "lon": 1.9275912 , "pop": 719 },
  { "nom": "Chavanac" , "lat": 45.6257140 , "lon": 2.0932488 , "pop": 52 },
  { "nom": "Chaveroche" , "lat": 45.5742357 , "lon": 2.2568556 , "pop": 268 },
  { "nom": "Combressol" , "lat": 45.4751266 , "lon": 2.1600703 , "pop": 386 },
  { "nom": "Darnets" , "lat": 45.4260017 , "lon": 2.1105582 , "pop": 303 },
  { "nom": "Davignac" , "lat": 45.4833331 , "lon": 2.0933643 , "pop": 235 },
  { "nom": "Gourdon-Murat" , "lat": 45.5406702 , "lon": 1.8947934 , "pop": 83 },
  { "nom": "Grandsaigne" , "lat": 45.4898668 , "lon": 1.9185282 , "pop": 46 },
  { "nom": "Lestards" , "lat": 45.5155979 , "lon": 1.8740945 , "pop": 117 },
  { "nom": "Lignareix" , "lat": 45.6132066 , "lon": 2.2956160 , "pop": 162 },
  { "nom": "Maussac" , "lat": 45.4714625 , "lon": 2.1425127 , "pop": 452 },
  { "nom": "Meymac" , "lat": 45.5367000 , "lon": 2.1465519 , "pop": 2389 },
  { "nom": "Millevaches" , "lat": 45.6426804 , "lon": 2.0945231 , "pop": 79 },
  { "nom": "Péret-Bel-Air" , "lat": 45.4780558 , "lon": 2.0395184 , "pop": 84 },
  { "nom": "Pérols-sur-Vézère" , "lat": 45.5864637 , "lon": 1.9803555 , "pop": 201 },
  { "nom": "Peyrelevade" , "lat": 45.7065096 , "lon": 2.0473377 , "pop": 824 },
  { "nom": "Pradines" , "lat": 45.5088466 , "lon": 1.9080420 , "pop": 91 },
  { "nom": "Saint-Angel" , "lat": 45.5030406 , "lon": 2.2317787 , "pop": 702 },
  { "nom": "Saint-Germain-Lavolps" , "lat": 45.6126458 , "lon": 2.2057653 , "pop": 102 },
  { "nom": "Saint-Merd-les-Oussines" , "lat": 45.6324832 , "lon": 2.0399863 , "pop": 105 },
  { "nom": "Saint-Pardoux-le-Vieux" , "lat": 45.6060452 , "lon": 2.2766242 , "pop": 293 },
  { "nom": "Saint-Rémy" , "lat": 45.6552005 , "lon": 2.2713537 , "pop": 244 },
  { "nom": "Saint-Setiers" , "lat": 45.6970334 , "lon": 2.1299931 , "pop": 252 },
  { "nom": "Saint-Sulpice-les-Bois" , "lat": 45.6149092 , "lon": 2.1450223 , "pop": 76 },
  { "nom": "Sornac" , "lat": 45.6662764 , "lon": 2.1936822 , "pop": 776 },
  { "nom": "Soudeilles" , "lat": 45.4458500 , "lon": 2.0775190 , "pop": 299 },
  { "nom": "Tarnac" , "lat": 45.6812093 , "lon": 1.9466801 , "pop": 333 },
  { "nom": "Toy-Viam" , "lat": 45.6483312 , "lon": 1.9312809 , "pop": 35 },
  { "nom": "Viam" , "lat": 45.6091279 , "lon": 1.8828243 , "pop": 85 },
  { "nom": "Chartrier-Ferrière" , "lat": 45.0696492 , "lon": 1.4523680 , "pop": 373 },
  { "nom": "Chasteaux" , "lat": 45.0945553 , "lon": 1.4697625 , "pop": 754 },
  { "nom": "Cublac" , "lat": 45.1436478 , "lon": 1.3055736 , "pop": 1728 },
  { "nom": "Estivals" , "lat": 45.0279009 , "lon": 1.4618396 , "pop": 135 },
  { "nom": "Jugeals-Nazareth" , "lat": 45.0805170 , "lon": 1.5591000 , "pop": 943 },
  { "nom": "Larche" , "lat": 45.1226150 , "lon": 1.4146780 , "pop": 1645 },
  { "nom": "Lissac-sur-Couze" , "lat": 45.1037174 , "lon": 1.4613902 , "pop": 705 },
  { "nom": "Mansac" , "lat": 45.1683199 , "lon": 1.3832536 , "pop": 1554 },
  { "nom": "Nespouls" , "lat": 45.0499350 , "lon": 1.5025990 , "pop": 638 },
  { "nom": "Noailles" , "lat": 45.1033323 , "lon": 1.5231134 , "pop": 945 },
  { "nom": "Saint-Cernin-de-Larche" , "lat": 45.1030210 , "lon": 1.4150855 , "pop": 695 },
  { "nom": "Saint-Pantaléon-de-Larche" , "lat": 45.1438159 , "lon": 1.4612521 , "pop": 5091 },
  { "nom": "Turenne" , "lat": 45.0541785 , "lon": 1.5823224 , "pop": 801 },
  { "nom": "Champagnac-la-Prune" , "lat": 45.1857883 , "lon": 1.9510282 , "pop": 150 },
  { "nom": "Chanac-les-Mines" , "lat": 45.2643310 , "lon": 1.8203980 , "pop": 437 },
  { "nom": "Clergoux" , "lat": 45.2786233 , "lon": 1.9736858 , "pop": 408 },
  { "nom": "Cornil" , "lat": 45.2112090 , "lon": 1.6920487 , "pop": 1261 },
  { "nom": "Espagnac" , "lat": 45.2300949 , "lon": 1.8970900 , "pop": 381 },
  { "nom": "Eyrein" , "lat": 45.3353649 , "lon": 1.9439514 , "pop": 514 },
  { "nom": "Gros-Chastang" , "lat": 45.2099610 , "lon": 1.9888093 , "pop": 181 },
  { "nom": "Gumond" , "lat": 45.2201681 , "lon": 1.9783123 , "pop": 99 },
  { "nom": "La Roche-Canillac" , "lat": 45.1962178 , "lon": 1.9704969 , "pop": 126 },
  { "nom": "Ladignac-sur-Rondelles" , "lat": 45.2329143 , "lon": 1.8369968 , "pop": 404 },
  { "nom": "Lagarde-Marc-la-Tour" , "lat": 45.1873996 , "lon": 1.8083229 , "pop": 928 },
  { "nom": "Laguenne-sur-Avalouze" , "lat": 45.2443746 , "lon": 1.7765942 , "pop": 1577 },
  { "nom": "Le Chastang" , "lat": 45.1723590 , "lon": 1.7341761 , "pop": 349 },
  { "nom": "Pandrignes" , "lat": 45.2282152 , "lon": 1.8558524 , "pop": 172 },
  { "nom": "Saint-Martial-de-Gimel" , "lat": 45.2667724 , "lon": 1.8724616 , "pop": 489 },
  { "nom": "Saint-Martin-la-Méanne" , "lat": 45.1702263 , "lon": 1.9873345 , "pop": 351 },
  { "nom": "Saint-Pardoux-la-Croisille" , "lat": 45.2461077 , "lon": 1.9824079 , "pop": 176 },
  { "nom": "Saint-Paul" , "lat": 45.2188335 , "lon": 1.8952574 , "pop": 232 },
  { "nom": "Saint-Priest-de-Gimel" , "lat": 45.3013793 , "lon": 1.8683933 , "pop": 480 },
  { "nom": "Sainte-Fortunade" , "lat": 45.2068246 , "lon": 1.7708012 , "pop": 1798 },
  { "nom": "Affieux" , "lat": 45.5196051 , "lon": 1.7645499 , "pop": 385 },
  { "nom": "Beaumont" , "lat": 45.4218958 , "lon": 1.8021998 , "pop": 114 },
  { "nom": "Chamberet" , "lat": 45.5825761 , "lon": 1.7214364 , "pop": 1433 },
  { "nom": "Chamboulive" , "lat": 45.4325645 , "lon": 1.7038580 , "pop": 1155 },
  { "nom": "Chanteix" , "lat": 45.3099456 , "lon": 1.6375217 , "pop": 596 },
  { "nom": "L'Église-aux-Bois" , "lat": 45.6481369 , "lon": 1.8020854 , "pop": 50 },
  { "nom": "Lacelle" , "lat": 45.6445351 , "lon": 1.8233364 , "pop": 137 },
  { "nom": "Lagraulière" , "lat": 45.3520858 , "lon": 1.6368788 , "pop": 1197 },
  { "nom": "Le Lonzac" , "lat": 45.4638270 , "lon": 1.7283739 , "pop": 823 },
  { "nom": "Madranges" , "lat": 45.4733093 , "lon": 1.7913768 , "pop": 166 },
  { "nom": "Peyrissac" , "lat": 45.5025610 , "lon": 1.6990983 , "pop": 133 },
  { "nom": "Pierrefitte" , "lat": 45.4231857 , "lon": 1.6481572 , "pop": 93 },
  { "nom": "Rilhac-Treignac" , "lat": 45.5268035 , "lon": 1.6864452 , "pop": 117 },
  { "nom": "Saint-Clément" , "lat": 45.3412518 , "lon": 1.6843033 , "pop": 1386 },
  { "nom": "Saint-Hilaire-les-Courbes" , "lat": 45.6099938 , "lon": 1.8324104 , "pop": 178 },
  { "nom": "Saint-Jal" , "lat": 45.3970686 , "lon": 1.6432073 , "pop": 594 },
  { "nom": "Saint-Salvadour" , "lat": 45.3927961 , "lon": 1.7659731 , "pop": 332 },
  { "nom": "Seilhac" , "lat": 45.3676120 , "lon": 1.7142440 , "pop": 1805 },
  { "nom": "Soudaine-Lavinadière" , "lat": 45.5567063 , "lon": 1.7410931 , "pop": 143 },
  { "nom": "Treignac" , "lat": 45.5365154 , "lon": 1.7949520 , "pop": 1256 },
  { "nom": "Veix" , "lat": 45.5089622 , "lon": 1.8345335 , "pop": 80 },
  { "nom": "Tulle" , "lat": 45.2656500 , "lon": 1.7716970 , "pop": 13401 },
  { "nom": "Aix" , "lat": 45.6154386 , "lon": 2.3831054 , "pop": 352 },
  { "nom": "Couffy-sur-Sarsonne" , "lat": 45.6612924 , "lon": 2.3285644 , "pop": 72 },
  { "nom": "Courteix" , "lat": 45.6484765 , "lon": 2.3424719 , "pop": 63 },
  { "nom": "Eygurande" , "lat": 45.6624353 , "lon": 2.4528091 , "pop": 678 },
  { "nom": "Feyt" , "lat": 45.6909580 , "lon": 2.4722019 , "pop": 110 },
  { "nom": "Lamazière-Haute" , "lat": 45.6700035 , "lon": 2.3978106 , "pop": 65 },
  { "nom": "Laroche-près-Feyt" , "lat": 45.7060236 , "lon": 2.5057599 , "pop": 80 },
  { "nom": "Merlines" , "lat": 45.6466319 , "lon": 2.4606730 , "pop": 741 },
  { "nom": "Monestier-Merlines" , "lat": 45.6482061 , "lon": 2.4749003 , "pop": 302 },
  { "nom": "Saint-Pardoux-le-Neuf" , "lat": 45.6125962 , "lon": 2.3314575 , "pop": 83 },
  { "nom": "Ussel" , "lat": 45.5473181 , "lon": 2.3093680 , "pop": 9187 },
  { "nom": "Arnac-Pompadour" , "lat": 45.3983310 , "lon": 1.3838850 , "pop": 1205 },
  { "nom": "Benayes" , "lat": 45.5186597 , "lon": 1.4705216 , "pop": 224 },
  { "nom": "Beyssac" , "lat": 45.3714718 , "lon": 1.4031576 , "pop": 481 },
  { "nom": "Beyssenac" , "lat": 45.4040936 , "lon": 1.2854999 , "pop": 370 },
  { "nom": "Condat-sur-Ganaveix" , "lat": 45.4662556 , "lon": 1.5948575 , "pop": 643 },
  { "nom": "Espartignac" , "lat": 45.4143440 , "lon": 1.5944671 , "pop": 407 },
  { "nom": "Eyburie" , "lat": 45.4586929 , "lon": 1.6345007 , "pop": 486 },
  { "nom": "Lamongerie" , "lat": 45.5369180 , "lon": 1.5750100 , "pop": 124 },
  { "nom": "Les Trois-Saints" , "lat": 45.4345201 , "lon": 1.4715238 , "pop": 1388 },
  { "nom": "Lubersac" , "lat": 45.4443280 , "lon": 1.4038489 , "pop": 2246 },
  { "nom": "Masseret" , "lat": 45.5405030 , "lon": 1.5208299 , "pop": 678 },
  { "nom": "Meilhards" , "lat": 45.5594284 , "lon": 1.6486069 , "pop": 545 },
  { "nom": "Montgibaud" , "lat": 45.5184419 , "lon": 1.4226623 , "pop": 251 },
  { "nom": "Saint-Éloy-les-Tuileries" , "lat": 45.4466894 , "lon": 1.2926629 , "pop": 114 },
  { "nom": "Saint-Julien-le-Vendômois" , "lat": 45.4613974 , "lon": 1.3281855 , "pop": 234 },
  { "nom": "Saint-Sornin-Lavolps" , "lat": 45.3781808 , "lon": 1.3826631 , "pop": 847 },
  { "nom": "Salon-la-Tour" , "lat": 45.5045718 , "lon": 1.5377111 , "pop": 681 },
  { "nom": "Ségur-le-Château" , "lat": 45.4292982 , "lon": 1.3052131 , "pop": 202 },
  { "nom": "Uzerche" , "lat": 45.4263348 , "lon": 1.5660105 , "pop": 2814 },
  { "nom": "Ayen" , "lat": 45.2477170 , "lon": 1.3275690 , "pop": 717 },
  { "nom": "Brignac-la-Plaine" , "lat": 45.1881976 , "lon": 1.3398174 , "pop": 977 },
  { "nom": "Chabrignac" , "lat": 45.3164137 , "lon": 1.3397487 , "pop": 542 },
  { "nom": "Concèze" , "lat": 45.3547034 , "lon": 1.3449798 , "pop": 376 },
  { "nom": "Juillac" , "lat": 45.3172590 , "lon": 1.3224000 , "pop": 1153 },
  { "nom": "Lascaux" , "lat": 45.3394986 , "lon": 1.3640854 , "pop": 228 },
  { "nom": "Louignac" , "lat": 45.2272402 , "lon": 1.2799839 , "pop": 248 },
  { "nom": "Objat" , "lat": 45.2627461 , "lon": 1.4097226 , "pop": 3721 },
  { "nom": "Perpezac-le-Blanc" , "lat": 45.2218018 , "lon": 1.3322318 , "pop": 427 },
  { "nom": "Rosiers-de-Juillac" , "lat": 45.2945973 , "lon": 1.3034603 , "pop": 177 },
  { "nom": "Saint-Aulaire" , "lat": 45.2312771 , "lon": 1.3724997 , "pop": 773 },
  { "nom": "Saint-Bonnet-la-Rivière" , "lat": 45.2993743 , "lon": 1.3697497 , "pop": 389 },
  { "nom": "Saint-Cyprien" , "lat": 45.2507121 , "lon": 1.3519639 , "pop": 377 },
  { "nom": "Saint-Cyr-la-Roche" , "lat": 45.2711539 , "lon": 1.3911430 , "pop": 450 },
  { "nom": "Saint-Robert" , "lat": 45.2549590 , "lon": 1.2942820 , "pop": 294 },
  { "nom": "Saint-Solve" , "lat": 45.3077160 , "lon": 1.4018010 , "pop": 450 },
  { "nom": "Segonzac" , "lat": 45.2759163 , "lon": 1.2763407 , "pop": 192 },
  { "nom": "Vars-sur-Roseix" , "lat": 45.2596335 , "lon": 1.3640335 , "pop": 415 },
  { "nom": "Vignols" , "lat": 45.3195666 , "lon": 1.3911655 , "pop": 536 },
  { "nom": "Voutezac" , "lat": 45.2930313 , "lon": 1.4365059 , "pop": 1246 },
  { "nom": "Yssandon" , "lat": 45.2080547 , "lon": 1.3785475 , "pop": 696 }
]