[
 { "nom": "Choisy" , "lat": 45.9926567 , "lon": 6.0577154 , "pop": 1731 },
 { "nom": "La Balme-de-Sillingy" , "lat": 45.9603641 , "lon": 6.0405922 , "pop": 5336 },
 { "nom": "Lovagny" , "lat": 45.9038618 , "lon": 6.0322666 , "pop": 1358 },
 { "nom": "Mésigny" , "lat": 45.9873437 , "lon": 6.0052729 , "pop": 804 },
 { "nom": "Nonglard" , "lat": 45.9192565 , "lon": 6.0253572 , "pop": 733 },
 { "nom": "Poisy" , "lat": 45.9218916 , "lon": 6.0627365 , "pop": 9291 },
 { "nom": "Sallenôves" , "lat": 46.0056656 , "lon": 5.9987656 , "pop": 849 },
 { "nom": "Sillingy" , "lat": 45.9469706 , "lon": 6.0356458 , "pop": 5826 },
 { "nom": "Sevrier" , "lat": 45.8637739 , "lon": 6.1401875 , "pop": 4333 },
 { "nom": "Annecy" , "lat": 45.9056550 , "lon": 6.1259714 , "pop": 132117 },
 { "nom": "Argonay" , "lat": 45.9434494 , "lon": 6.1415608 , "pop": 3807 },
 { "nom": "Charvonnex" , "lat": 45.9773395 , "lon": 6.1571820 , "pop": 1537 },
 { "nom": "Epagny Metz-Tessy" , "lat": 45.9382396 , "lon": 6.0908890 , "pop": 8925 },
 { "nom": "Fillière" , "lat": 45.9962368 , "lon": 6.2484741 , "pop": 10075 },
 { "nom": "Groisy" , "lat": 46.0150757 , "lon": 6.1711407 , "pop": 4082 },
 { "nom": "Nâves-Parmelan" , "lat": 45.9337720 , "lon": 6.1895943 , "pop": 1000 },
 { "nom": "Villaz" , "lat": 45.9507823 , "lon": 6.1914825 , "pop": 3607 },
 { "nom": "Ambilly" , "lat": 46.1958646 , "lon": 6.2221241 , "pop": 6355 },
 { "nom": "Annemasse" , "lat": 46.1930722 , "lon": 6.2335396 , "pop": 37628 },
 { "nom": "Ville-la-Grand" , "lat": 46.2021526 , "lon": 6.2500191 , "pop": 9514 },
 { "nom": "Arenthon" , "lat": 46.1057862 , "lon": 6.3330901 , "pop": 2097 },
 { "nom": "Ayse" , "lat": 46.0826323 , "lon": 6.4372457 , "pop": 2376 },
 { "nom": "Bonneville" , "lat": 46.0777340 , "lon": 6.4072088 , "pop": 13335 },
 { "nom": "Brizon" , "lat": 46.0485520 , "lon": 6.4451459 , "pop": 457 },
 { "nom": "Contamine-sur-Arve" , "lat": 46.1275919 , "lon": 6.3394845 , "pop": 2403 },
 { "nom": "Faucigny" , "lat": 46.1186268 , "lon": 6.3578868 , "pop": 684 },
 { "nom": "Fillinges" , "lat": 46.1554499 , "lon": 6.3390255 , "pop": 3671 },
 { "nom": "Glières-Val-de-Borne" , "lat": 46.0004152 , "lon": 6.3960600 , "pop": 1824 },
 { "nom": "La Tour" , "lat": 46.1332137 , "lon": 6.4304352 , "pop": 1329 },
 { "nom": "Marcellaz" , "lat": 46.1451631 , "lon": 6.3543034 , "pop": 1082 },
 { "nom": "Marignier" , "lat": 46.0901888 , "lon": 6.4991856 , "pop": 6507 },
 { "nom": "Mégevette" , "lat": 46.1998371 , "lon": 6.4981771 , "pop": 619 },
 { "nom": "Onnion" , "lat": 46.1718914 , "lon": 6.4797020 , "pop": 1299 },
 { "nom": "Peillonnex" , "lat": 46.1312462 , "lon": 6.3758469 , "pop": 1381 },
 { "nom": "Saint-Jean-de-Tholome" , "lat": 46.1112318 , "lon": 6.3975191 , "pop": 1180 },
 { "nom": "Saint-Jeoire" , "lat": 46.1384179 , "lon": 6.4577723 , "pop": 3457 },
 { "nom": "Saint-Pierre-en-Faucigny" , "lat": 46.0586814 , "lon": 6.3710403 , "pop": 7865 },
 { "nom": "Ville-en-Sallaz" , "lat": 46.1463524 , "lon": 6.4227962 , "pop": 899 },
 { "nom": "Viuz-en-Sallaz" , "lat": 46.1474228 , "lon": 6.4103508 , "pop": 4681 },
 { "nom": "Vougy" , "lat": 46.0658969 , "lon": 6.4863110 , "pop": 1659 },
 { "nom": "Châtillon-sur-Cluses" , "lat": 46.0869789 , "lon": 6.5824842 , "pop": 1250 },
 { "nom": "Cluses" , "lat": 46.0649943 , "lon": 6.5792656 , "pop": 17795 },
 { "nom": "La Rivière-Enverse" , "lat": 46.0927232 , "lon": 6.6368151 , "pop": 504 },
 { "nom": "Le Reposoir" , "lat": 46.0114992 , "lon": 6.5356636 , "pop": 565 },
 { "nom": "Marnaz" , "lat": 46.0595840 , "lon": 6.5260506 , "pop": 5964 },
 { "nom": "Mieussy" , "lat": 46.1348150 , "lon": 6.5229607 , "pop": 2530 },
 { "nom": "Mont-Saxonnex" , "lat": 46.0507435 , "lon": 6.4789295 , "pop": 1622 },
 { "nom": "Morillon" , "lat": 46.0836154 , "lon": 6.6760397 , "pop": 719 },
 { "nom": "Nancy-sur-Cluses" , "lat": 46.0431480 , "lon": 6.5778065 , "pop": 463 },
 { "nom": "Saint-Sigismond" , "lat": 46.0716136 , "lon": 6.6132545 , "pop": 641 },
 { "nom": "Samoëns" , "lat": 46.0832238 , "lon": 6.7269802 , "pop": 2203 },
 { "nom": "Scionzier" , "lat": 46.0579759 , "lon": 6.5488815 , "pop": 9162 },
 { "nom": "Sixt-Fer-à-Cheval" , "lat": 46.0546404 , "lon": 6.7756462 , "pop": 736 },
 { "nom": "Taninges" , "lat": 46.1077355 , "lon": 6.5907929 , "pop": 3491 },
 { "nom": "Thyez" , "lat": 46.0827370 , "lon": 6.5397236 , "pop": 6309 },
 { "nom": "Verchaix" , "lat": 46.0972124 , "lon": 6.6791725 , "pop": 830 },
 { "nom": "Abondance" , "lat": 46.2793978 , "lon": 6.7206287 , "pop": 1583 },
 { "nom": "Bernex" , "lat": 46.3595117 , "lon": 6.6753960 , "pop": 1472 },
 { "nom": "Bonnevaux" , "lat": 46.2974831 , "lon": 6.6705894 , "pop": 284 },
 { "nom": "Champanges" , "lat": 46.3720384 , "lon": 6.5529156 , "pop": 1208 },
 { "nom": "Châtel" , "lat": 46.2672949 , "lon": 6.8410492 , "pop": 1174 },
 { "nom": "Chevenoz" , "lat": 46.3399313 , "lon": 6.6381025 , "pop": 709 },
 { "nom": "Essert-Romand" , "lat": 46.2010972 , "lon": 6.6715336 , "pop": 526 },
 { "nom": "Évian-les-Bains" , "lat": 46.4000880 , "lon": 6.5893936 , "pop": 9267 },
 { "nom": "Féternes" , "lat": 46.3526651 , "lon": 6.5630436 , "pop": 1550 },
 { "nom": "La Baume" , "lat": 46.2822919 , "lon": 6.6130829 , "pop": 320 },
 { "nom": "La Chapelle-d'Abondance" , "lat": 46.2952889 , "lon": 6.7881775 , "pop": 872 },
 { "nom": "La Côte-d'Arbroz" , "lat": 46.1876870 , "lon": 6.6679072 , "pop": 349 },
 { "nom": "La Forclaz" , "lat": 46.3217094 , "lon": 6.6144133 , "pop": 219 },
 { "nom": "La Vernaz" , "lat": 46.3161646 , "lon": 6.5940714 , "pop": 280 },
 { "nom": "Larringes" , "lat": 46.3687515 , "lon": 6.5717554 , "pop": 1592 },
 { "nom": "Le Biot" , "lat": 46.2613611 , "lon": 6.6324377 , "pop": 633 },
 { "nom": "Les Gets" , "lat": 46.1566390 , "lon": 6.6650963 , "pop": 1227 },
 { "nom": "Lugrin" , "lat": 46.4027358 , "lon": 6.6640234 , "pop": 2614 },
 { "nom": "Marin" , "lat": 46.3764273 , "lon": 6.5286223 , "pop": 1940 },
 { "nom": "Maxilly-sur-Léman" , "lat": 46.3991024 , "lon": 6.6319625 , "pop": 1528 },
 { "nom": "Meillerie" , "lat": 46.4073426 , "lon": 6.7195551 , "pop": 293 },
 { "nom": "Montriond" , "lat": 46.1988397 , "lon": 6.6940641 , "pop": 969 },
 { "nom": "Morzine" , "lat": 46.1797023 , "lon": 6.7084408 , "pop": 2658 },
 { "nom": "Neuvecelle" , "lat": 46.3954802 , "lon": 6.6120529 , "pop": 3256 },
 { "nom": "Novel" , "lat": 46.3688427 , "lon": 6.7887783 , "pop": 55 },
 { "nom": "Publier" , "lat": 46.3874928 , "lon": 6.5442467 , "pop": 7864 },
 { "nom": "Saint-Gingolph" , "lat": 46.3923178 , "lon": 6.8010092 , "pop": 903 },
 { "nom": "Saint-Jean-d'Aulps" , "lat": 46.2345623 , "lon": 6.6549683 , "pop": 1492 },
 { "nom": "Saint-Paul-en-Chablais" , "lat": 46.3789076 , "lon": 6.6269875 , "pop": 2613 },
 { "nom": "Seytroux" , "lat": 46.2502633 , "lon": 6.6192627 , "pop": 538 },
 { "nom": "Thollon-les-Mémises" , "lat": 46.3910746 , "lon": 6.6982698 , "pop": 879 },
 { "nom": "Vacheresse" , "lat": 46.3260660 , "lon": 6.6721988 , "pop": 939 },
 { "nom": "Vinzier" , "lat": 46.3503889 , "lon": 6.6193485 , "pop": 896 },
 { "nom": "Alex" , "lat": 45.8889281 , "lon": 6.2374449 , "pop": 1139 },
 { "nom": "Bluffy" , "lat": 45.8710622 , "lon": 6.2178326 , "pop": 395 },
 { "nom": "Chevaline" , "lat": 45.7629079 , "lon": 6.2198496 , "pop": 181 },
 { "nom": "Dingy-Saint-Clair" , "lat": 45.9101327 , "lon": 6.2221670 , "pop": 1466 },
 { "nom": "Doussard" , "lat": 45.7760149 , "lon": 6.2198925 , "pop": 3751 },
 { "nom": "Faverges-Seythenex" , "lat": 45.7455359 , "lon": 6.2948227 , "pop": 7545 },
 { "nom": "Giez" , "lat": 45.7526977 , "lon": 6.2471008 , "pop": 570 },
 { "nom": "La Balme-de-Thuy" , "lat": 45.9008156 , "lon": 6.2742662 , "pop": 460 },
 { "nom": "La Clusaz" , "lat": 45.9044590 , "lon": 6.4240408 , "pop": 1623 },
 { "nom": "Lathuile" , "lat": 45.7835021 , "lon": 6.2040138 , "pop": 1105 },
 { "nom": "Le Bouchet-Mont-Charvin" , "lat": 45.7977334 , "lon": 6.3640451 , "pop": 245 },
 { "nom": "Le Grand-Bornand" , "lat": 45.9424867 , "lon": 6.4271736 , "pop": 2050 },
 { "nom": "Les Clefs" , "lat": 45.8608719 , "lon": 6.3286829 , "pop": 714 },
 { "nom": "Les Villards-sur-Thônes" , "lat": 45.9076543 , "lon": 6.3657188 , "pop": 1132 },
 { "nom": "Manigod" , "lat": 45.8608719 , "lon": 6.3696671 , "pop": 1000 },
 { "nom": "Menthon-Saint-Bernard" , "lat": 45.8598810 , "lon": 6.1959457 , "pop": 1891 },
 { "nom": "Saint-Ferréol" , "lat": 45.7654180 , "lon": 6.3060665 , "pop": 874 },
 { "nom": "Saint-Jean-de-Sixt" , "lat": 45.9227023 , "lon": 6.4106083 , "pop": 1561 },
 { "nom": "Serraval" , "lat": 45.8017851 , "lon": 6.3403559 , "pop": 758 },
 { "nom": "Talloires-Montmin" , "lat": 45.8408697 , "lon": 6.2153435 , "pop": 1903 },
 { "nom": "Thônes" , "lat": 45.8812759 , "lon": 6.3240910 , "pop": 6654 },
 { "nom": "Val de Chaise" , "lat": 45.7676680 , "lon": 6.3478231 , "pop": 1384 },
 { "nom": "Veyrier-du-Lac" , "lat": 45.8821721 , "lon": 6.1775780 , "pop": 2320 },
 { "nom": "Arthaz-Pont-Notre-Dame" , "lat": 46.1583036 , "lon": 6.2710476 , "pop": 1713 },
 { "nom": "Bonne" , "lat": 46.1677557 , "lon": 6.3217735 , "pop": 3267 },
 { "nom": "Cranves-Sales" , "lat": 46.1875463 , "lon": 6.2913895 , "pop": 7762 },
 { "nom": "Étrembières" , "lat": 46.1785777 , "lon": 6.2256861 , "pop": 2679 },
 { "nom": "Gaillard" , "lat": 46.1846941 , "lon": 6.2111378 , "pop": 11423 },
 { "nom": "Juvigny" , "lat": 46.2146995 , "lon": 6.2806606 , "pop": 639 },
 { "nom": "Lucinges" , "lat": 46.1901951 , "lon": 6.3180399 , "pop": 1819 },
 { "nom": "Machilly" , "lat": 46.2482406 , "lon": 6.3307858 , "pop": 1152 },
 { "nom": "Saint-Cergues" , "lat": 46.2344686 , "lon": 6.3215160 , "pop": 3869 },
 { "nom": "Vétraz-Monthoux" , "lat": 46.1750593 , "lon": 6.2579155 , "pop": 10949 },
 { "nom": "Chamonix-Mont-Blanc" , "lat": 45.9243395 , "lon": 6.8722916 , "pop": 8705 },
 { "nom": "Les Contamines-Montjoie" , "lat": 45.8210742 , "lon": 6.7272377 , "pop": 1109 },
 { "nom": "Les Houches" , "lat": 45.8916118 , "lon": 6.7991638 , "pop": 3515 },
 { "nom": "Passy" , "lat": 45.9206974 , "lon": 6.6872406 , "pop": 10856 },
 { "nom": "Saint-Gervais-les-Bains" , "lat": 45.8925676 , "lon": 6.7105865 , "pop": 5755 },
 { "nom": "Servoz" , "lat": 45.9307275 , "lon": 6.7664623 , "pop": 1169 },
 { "nom": "Vallorcine" , "lat": 46.0340023 , "lon": 6.9326305 , "pop": 453 },
 { "nom": "Allonzier-la-Caille" , "lat": 45.9986861 , "lon": 6.1215734 , "pop": 2253 },
 { "nom": "Amancy" , "lat": 46.0741740 , "lon": 6.3286400 , "pop": 2792 },
 { "nom": "Andilly" , "lat": 46.0697128 , "lon": 6.0680580 , "pop": 1013 },
 { "nom": "Arbusigny" , "lat": 46.0931696 , "lon": 6.2188196 , "pop": 1167 },
 { "nom": "Cercier" , "lat": 46.0256000 , "lon": 6.0480595 , "pop": 734 },
 { "nom": "Cernex" , "lat": 46.0643485 , "lon": 6.0496902 , "pop": 1184 },
 { "nom": "Copponex" , "lat": 46.0501134 , "lon": 6.0738087 , "pop": 1340 },
 { "nom": "Cornier" , "lat": 46.0935863 , "lon": 6.2995005 , "pop": 1507 },
 { "nom": "Cruseilles" , "lat": 46.0337891 , "lon": 6.1071968 , "pop": 5376 },
 { "nom": "Cuvat" , "lat": 45.9741154 , "lon": 6.1171961 , "pop": 1665 },
 { "nom": "Eteaux" , "lat": 46.0656038 , "lon": 6.2939644 , "pop": 2180 },
 { "nom": "La Chapelle-Rambaud" , "lat": 46.0715015 , "lon": 6.2397838 , "pop": 249 },
 { "nom": "La Muraz" , "lat": 46.1231780 , "lon": 6.2060308 , "pop": 1048 },
 { "nom": "La Roche-sur-Foron" , "lat": 46.0674452 , "lon": 6.3115597 , "pop": 11348 },
 { "nom": "Le Sappey" , "lat": 46.0892284 , "lon": 6.1664629 , "pop": 468 },
 { "nom": "Menthonnex-en-Bornes" , "lat": 46.0521731 , "lon": 6.1723852 , "pop": 1115 },
 { "nom": "Monnetier-Mornex" , "lat": 46.1596162 , "lon": 6.2092066 , "pop": 2362 },
 { "nom": "Nangy" , "lat": 46.1549194 , "lon": 6.3022041 , "pop": 1771 },
 { "nom": "Pers-Jussy" , "lat": 46.1068494 , "lon": 6.2671961 , "pop": 3245 },
 { "nom": "Reignier-Ésery" , "lat": 46.1353923 , "lon": 6.2689237 , "pop": 8464 },
 { "nom": "Saint-Blaise" , "lat": 46.0647613 , "lon": 6.0887112 , "pop": 383 },
 { "nom": "Saint-Laurent" , "lat": 46.0466542 , "lon": 6.3528981 , "pop": 841 },
 { "nom": "Saint-Sixt" , "lat": 46.0526111 , "lon": 6.3289513 , "pop": 1016 },
 { "nom": "Scientrier" , "lat": 46.1189579 , "lon": 6.3160338 , "pop": 1273 },
 { "nom": "Villy-le-Bouveret" , "lat": 46.0426118 , "lon": 6.1618280 , "pop": 653 },
 { "nom": "Villy-le-Pelloux" , "lat": 45.9993969 , "lon": 6.1326027 , "pop": 1062 },
 { "nom": "Vovray-en-Bornes" , "lat": 46.0645914 , "lon": 6.1425591 , "pop": 550 },
 { "nom": "Alby-sur-Chéran" , "lat": 45.8185619 , "lon": 6.0088348 , "pop": 2664 },
 { "nom": "Allèves" , "lat": 45.7520114 , "lon": 6.0801172 , "pop": 397 },
 { "nom": "Bloye" , "lat": 45.8257915 , "lon": 5.9448266 , "pop": 571 },
 { "nom": "Boussy" , "lat": 45.8558979 , "lon": 5.9822702 , "pop": 506 },
 { "nom": "Chainaz-les-Frasses" , "lat": 45.7733729 , "lon": 5.9959602 , "pop": 681 },
 { "nom": "Chapeiry" , "lat": 45.8452391 , "lon": 6.0379314 , "pop": 984 },
 { "nom": "Crempigny-Bonneguête" , "lat": 45.9518485 , "lon": 5.9032416 , "pop": 325 },
 { "nom": "Cusy" , "lat": 45.7651594 , "lon": 6.0302394 , "pop": 1842 },
 { "nom": "Étercy" , "lat": 45.8904122 , "lon": 6.0094091 , "pop": 985 },
 { "nom": "Gruffy" , "lat": 45.7872130 , "lon": 6.0552692 , "pop": 1504 },
 { "nom": "Hauteville-sur-Fier" , "lat": 45.9036527 , "lon": 5.9742880 , "pop": 1155 },
 { "nom": "Héry-sur-Alby" , "lat": 45.7971476 , "lon": 6.0131693 , "pop": 979 },
 { "nom": "Lornay" , "lat": 45.9167313 , "lon": 5.9019327 , "pop": 588 },
 { "nom": "Marcellaz-Albanais" , "lat": 45.8741399 , "lon": 6.0011959 , "pop": 2058 },
 { "nom": "Marigny-Saint-Marcel" , "lat": 45.8288268 , "lon": 5.9861112 , "pop": 708 },
 { "nom": "Massingy" , "lat": 45.8291109 , "lon": 5.9191847 , "pop": 852 },
 { "nom": "Moye" , "lat": 45.8762935 , "lon": 5.9122109 , "pop": 985 },
 { "nom": "Mûres" , "lat": 45.8054822 , "lon": 6.0379314 , "pop": 870 },
 { "nom": "Rumilly" , "lat": 45.8586762 , "lon": 5.9502983 , "pop": 16442 },
 { "nom": "Saint-Eusèbe" , "lat": 45.9296152 , "lon": 5.9625506 , "pop": 633 },
 { "nom": "Saint-Félix" , "lat": 45.8009726 , "lon": 5.9734726 , "pop": 2439 },
 { "nom": "Saint-Sylvestre" , "lat": 45.8390828 , "lon": 6.0138774 , "pop": 595 },
 { "nom": "Sales" , "lat": 45.8747375 , "lon": 5.9598255 , "pop": 2325 },
 { "nom": "Thusy" , "lat": 45.9469676 , "lon": 5.9496546 , "pop": 1181 },
 { "nom": "Vallières-sur-Fier" , "lat": 45.9009304 , "lon": 5.9345913 , "pop": 2860 },
 { "nom": "Vaulx" , "lat": 45.9296875 , "lon": 5.9966469 , "pop": 1086 },
 { "nom": "Versonnex" , "lat": 45.9293293 , "lon": 5.9266520 , "pop": 714 },
 { "nom": "Viuz-la-Chiésaz" , "lat": 45.8104606 , "lon": 6.0615778 , "pop": 1351 },
 { "nom": "Archamps" , "lat": 46.1353275 , "lon": 6.1331606 , "pop": 2375 },
 { "nom": "Bassy" , "lat": 45.9806491 , "lon": 5.8301568 , "pop": 423 },
 { "nom": "Beaumont" , "lat": 46.1031387 , "lon": 6.1193419 , "pop": 3097 },
 { "nom": "Bossey" , "lat": 46.1518299 , "lon": 6.1589313 , "pop": 941 },
 { "nom": "Challonges" , "lat": 46.0189845 , "lon": 5.8308220 , "pop": 610 },
 { "nom": "Chaumont" , "lat": 46.0350474 , "lon": 5.9567356 , "pop": 555 },
 { "nom": "Chavannaz" , "lat": 46.0507854 , "lon": 6.0159266 , "pop": 249 },
 { "nom": "Chêne-en-Semine" , "lat": 46.0474076 , "lon": 5.8559275 , "pop": 544 },
 { "nom": "Chênex" , "lat": 46.1047753 , "lon": 5.9933853 , "pop": 791 },
 { "nom": "Chessenaz" , "lat": 46.0344366 , "lon": 5.8985639 , "pop": 239 },
 { "nom": "Chevrier" , "lat": 46.1082863 , "lon": 5.9171677 , "pop": 757 },
 { "nom": "Chilly" , "lat": 45.9916500 , "lon": 5.9532166 , "pop": 1705 },
 { "nom": "Clarafond-Arcine" , "lat": 46.0639661 , "lon": 5.8936501 , "pop": 1068 },
 { "nom": "Clermont" , "lat": 45.9722662 , "lon": 5.9069109 , "pop": 474 },
 { "nom": "Collonges-sous-Salève" , "lat": 46.1405246 , "lon": 6.1450481 , "pop": 3832 },
 { "nom": "Contamine-Sarzin" , "lat": 46.0245570 , "lon": 5.9823561 , "pop": 733 },
 { "nom": "Desingy" , "lat": 45.9953172 , "lon": 5.8905172 , "pop": 764 },
 { "nom": "Dingy-en-Vuache" , "lat": 46.0917434 , "lon": 5.9440970 , "pop": 819 },
 { "nom": "Droisy" , "lat": 45.9653162 , "lon": 5.8836079 , "pop": 155 },
 { "nom": "Éloise" , "lat": 46.0792694 , "lon": 5.8576870 , "pop": 931 },
 { "nom": "Feigères" , "lat": 46.1130638 , "lon": 6.0802460 , "pop": 1879 },
 { "nom": "Franclens" , "lat": 46.0427310 , "lon": 5.8269167 , "pop": 541 },
 { "nom": "Frangy" , "lat": 46.0191931 , "lon": 5.9295273 , "pop": 2262 },
 { "nom": "Jonzier-Épagny" , "lat": 46.0708739 , "lon": 5.9900379 , "pop": 942 },
 { "nom": "Marlioz" , "lat": 46.0328278 , "lon": 6.0024834 , "pop": 1062 },
 { "nom": "Menthonnex-sous-Clermont" , "lat": 45.9640335 , "lon": 5.9345484 , "pop": 811 },
 { "nom": "Minzier" , "lat": 46.0526669 , "lon": 5.9884715 , "pop": 1090 },
 { "nom": "Musièges" , "lat": 46.0155447 , "lon": 5.9533453 , "pop": 422 },
 { "nom": "Neydens" , "lat": 46.1206919 , "lon": 6.1035061 , "pop": 2250 },
 { "nom": "Présilly" , "lat": 46.0924851 , "lon": 6.0784435 , "pop": 1116 },
 { "nom": "Saint-Germain-sur-Rhône" , "lat": 46.0594719 , "lon": 5.8174324 , "pop": 646 },
 { "nom": "Saint-Julien-en-Genevois" , "lat": 46.1445136 , "lon": 6.0808897 , "pop": 16222 },
 { "nom": "Savigny" , "lat": 46.0670638 , "lon": 5.9603419 , "pop": 1041 },
 { "nom": "Seyssel" , "lat": 45.9578833 , "lon": 5.8382034 , "pop": 2321 },
 { "nom": "Usinens" , "lat": 46.0093280 , "lon": 5.8418941 , "pop": 433 },
 { "nom": "Valleiry" , "lat": 46.1087577 , "lon": 5.9685802 , "pop": 5264 },
 { "nom": "Vanzy" , "lat": 46.0423163 , "lon": 5.8863544 , "pop": 351 },
 { "nom": "Vers" , "lat": 46.0889010 , "lon": 6.0312152 , "pop": 975 },
 { "nom": "Viry" , "lat": 46.1161703 , "lon": 6.0378456 , "pop": 5809 },
 { "nom": "Vulbens" , "lat": 46.1012641 , "lon": 5.9313726 , "pop": 1789 },
 { "nom": "Arâches-la-Frasse" , "lat": 46.0407947 , "lon": 6.6342402 , "pop": 1764 },
 { "nom": "Combloux" , "lat": 45.8937624 , "lon": 6.6449261 , "pop": 2093 },
 { "nom": "Cordon" , "lat": 45.9219858 , "lon": 6.6102076 , "pop": 998 },
 { "nom": "Demi-Quartier" , "lat": 45.8807979 , "lon": 6.6392612 , "pop": 801 },
 { "nom": "Domancy" , "lat": 45.9127006 , "lon": 6.6491747 , "pop": 2097 },
 { "nom": "Magland" , "lat": 46.0198785 , "lon": 6.6205931 , "pop": 3220 },
 { "nom": "Megève" , "lat": 45.8577935 , "lon": 6.6181040 , "pop": 2893 },
 { "nom": "Praz-sur-Arly" , "lat": 45.8372819 , "lon": 6.5701675 , "pop": 1311 },
 { "nom": "Sallanches" , "lat": 45.9377714 , "lon": 6.6304207 , "pop": 17319 },
 { "nom": "Anthy-sur-Léman" , "lat": 46.3558048 , "lon": 6.4264870 , "pop": 2495 },
 { "nom": "Ballaison" , "lat": 46.2990889 , "lon": 6.3283825 , "pop": 1472 },
 { "nom": "Boëge" , "lat": 46.2089679 , "lon": 6.4043856 , "pop": 1983 },
 { "nom": "Bogève" , "lat": 46.1938195 , "lon": 6.4297485 , "pop": 1200 },
 { "nom": "Bons-en-Chablais" , "lat": 46.2647982 , "lon": 6.3694096 , "pop": 6343 },
 { "nom": "Brenthonne" , "lat": 46.2736730 , "lon": 6.3939142 , "pop": 1128 },
 { "nom": "Burdignin" , "lat": 46.2211431 , "lon": 6.4233112 , "pop": 712 },
 { "nom": "Chens-sur-Léman" , "lat": 46.3271305 , "lon": 6.2688160 , "pop": 3068 },
 { "nom": "Douvaine" , "lat": 46.3060126 , "lon": 6.3023758 , "pop": 6796 },
 { "nom": "Excenevex" , "lat": 46.3539684 , "lon": 6.3532734 , "pop": 1327 },
 { "nom": "Fessy" , "lat": 46.2764613 , "lon": 6.4132261 , "pop": 1076 },
 { "nom": "Habère-Lullin" , "lat": 46.2350372 , "lon": 6.4551544 , "pop": 1122 },
 { "nom": "Habère-Poche" , "lat": 46.2493730 , "lon": 6.4730501 , "pop": 1488 },
 { "nom": "Loisin" , "lat": 46.2920910 , "lon": 6.3097143 , "pop": 1768 },
 { "nom": "Lully" , "lat": 46.2852703 , "lon": 6.4151144 , "pop": 764 },
 { "nom": "Margencel" , "lat": 46.3366128 , "lon": 6.4303493 , "pop": 2273 },
 { "nom": "Massongy" , "lat": 46.3185951 , "lon": 6.3306999 , "pop": 1770 },
 { "nom": "Messery" , "lat": 46.3505916 , "lon": 6.2919044 , "pop": 2474 },
 { "nom": "Nernier" , "lat": 46.3638357 , "lon": 6.3039637 , "pop": 423 },
 { "nom": "Saint-André-de-Boëge" , "lat": 46.1902420 , "lon": 6.3937426 , "pop": 507 },
 { "nom": "Saxel" , "lat": 46.2429328 , "lon": 6.3955450 , "pop": 518 },
 { "nom": "Sciez" , "lat": 46.3313339 , "lon": 6.3752460 , "pop": 6447 },
 { "nom": "Veigy-Foncenex" , "lat": 46.2699602 , "lon": 6.2576580 , "pop": 4141 },
 { "nom": "Villard" , "lat": 46.2170157 , "lon": 6.4390182 , "pop": 947 },
 { "nom": "Yvoire" , "lat": 46.3694030 , "lon": 6.3257647 , "pop": 1046 },
 { "nom": "Chavanod" , "lat": 45.8831328 , "lon": 6.0541534 , "pop": 3135 },
 { "nom": "Duingt" , "lat": 45.8270555 , "lon": 6.2026405 , "pop": 1078 },
 { "nom": "Entrevernes" , "lat": 45.7959208 , "lon": 6.1887360 , "pop": 191 },
 { "nom": "La Chapelle-Saint-Maurice" , "lat": 45.7789103 , "lon": 6.1502838 , "pop": 121 },
 { "nom": "Leschaux" , "lat": 45.7730736 , "lon": 6.1262727 , "pop": 328 },
 { "nom": "Montagny-les-Lanches" , "lat": 45.8607524 , "lon": 6.0490894 , "pop": 830 },
 { "nom": "Quintal" , "lat": 45.8411135 , "lon": 6.0843658 , "pop": 1257 },
 { "nom": "Saint-Eustache" , "lat": 45.7958483 , "lon": 6.1481810 , "pop": 496 },
 { "nom": "Saint-Jorioz" , "lat": 45.8322493 , "lon": 6.1636734 , "pop": 6390 },
 { "nom": "Allinges" , "lat": 46.3355758 , "lon": 6.4628792 , "pop": 5019 },
 { "nom": "Armoy" , "lat": 46.3478756 , "lon": 6.5194845 , "pop": 1564 },
 { "nom": "Bellevaux" , "lat": 46.2573258 , "lon": 6.5319729 , "pop": 1450 },
 { "nom": "Cervens" , "lat": 46.2852109 , "lon": 6.4408636 , "pop": 1270 },
 { "nom": "Draillant" , "lat": 46.3049023 , "lon": 6.4582229 , "pop": 872 },
 { "nom": "Lullin" , "lat": 46.2835798 , "lon": 6.5215445 , "pop": 809 },
 { "nom": "Lyaud" , "lat": 46.3383906 , "lon": 6.5214157 , "pop": 1780 },
 { "nom": "Orcier" , "lat": 46.3125187 , "lon": 6.4899588 , "pop": 1079 },
 { "nom": "Perrignier" , "lat": 46.3043367 , "lon": 6.4417219 , "pop": 1905 },
 { "nom": "Reyvroz" , "lat": 46.3256488 , "lon": 6.5607691 , "pop": 500 },
 { "nom": "Thonon-les-Bains" , "lat": 46.3719061 , "lon": 6.4778137 , "pop": 37928 },
 { "nom": "Vailly" , "lat": 46.3027653 , "lon": 6.5408134 , "pop": 907 }
]