[
{ "nom": "Aigueperse", "lat": 46.0167200 , "lon": 3.2000099 , "pop": 2665 },
{ "nom": "Artonne", "lat": 46.0027560 , "lon": 3.1420636 , "pop": 912 },
{ "nom": "Aubiat", "lat": 45.9772050 , "lon": 3.1674760 , "pop": 1023 },
{ "nom": "Bussières-et-Pruns", "lat": 46.0064530 , "lon": 3.2314710 , "pop": 512 },
{ "nom": "Chappes", "lat": 45.8661710 , "lon": 3.2180710 , "pop": 1607 },
{ "nom": "Chaptuzat", "lat": 46.0319150 , "lon": 3.1776950 , "pop": 485 },
{ "nom": "Chavaroux", "lat": 45.8492358 , "lon": 3.2601125 , "pop": 529 },
{ "nom": "Clerlande", "lat": 45.9180960 , "lon": 3.1921689 , "pop": 637 },
{ "nom": "Effiat", "lat": 46.0418942 , "lon": 3.2546400 , "pop": 1124 },
{ "nom": "Ennezat", "lat": 45.8977894 , "lon": 3.2243084 , "pop": 2748 },
{ "nom": "Entraigues", "lat": 45.8896600 , "lon": 3.2610840 , "pop": 734 },
{ "nom": "Les Martres-d'Artière", "lat": 45.8346089 , "lon": 3.2645184 , "pop": 2252 },
{ "nom": "Lussat", "lat": 45.8391920 , "lon": 3.2164160 , "pop": 949 },
{ "nom": "Martres-sur-Morge", "lat": 45.9362713 , "lon": 3.2216809 , "pop": 758 },
{ "nom": "Montpensier", "lat": 46.0357540 , "lon": 3.2194430 , "pop": 465 },
{ "nom": "Saint-Agoulin", "lat": 46.0381849 , "lon": 3.1278882 , "pop": 310 },
{ "nom": "Saint-Genès-du-Retz", "lat": 46.0615340 , "lon": 3.2156460 , "pop": 471 },
{ "nom": "Saint-Ignat", "lat": 45.9233350 , "lon": 3.2735321 , "pop": 916 },
{ "nom": "Saint-Laure", "lat": 45.9015212 , "lon": 3.2910832 , "pop": 716 },
{ "nom": "Sardon", "lat": 45.9613118 , "lon": 3.2224674 , "pop": 303 },
{ "nom": "Surat", "lat": 45.9376620 , "lon": 3.2522840 , "pop": 611 },
{ "nom": "Thuret", "lat": 45.9701447 , "lon": 3.2579893 , "pop": 911 },
{ "nom": "Varennes-sur-Morge", "lat": 45.9421120 , "lon": 3.1859400 , "pop": 429 },
{ "nom": "Vensat", "lat": 46.0453670 , "lon": 3.1871660 , "pop": 569 },
{ "nom": "Ambert" , "lat": 45.5493971 , "lon": 3.7396138 , "pop": 6517 },
{ "nom": "Arlanc" , "lat": 45.4140497 , "lon": 3.7244238 , "pop": 1785 },
{ "nom": "Baffie" , "lat": 45.4716876 , "lon": 3.8268091 , "pop": 111 },
{ "nom": "Beurières" , "lat": 45.4395035 , "lon": 3.7746676 , "pop": 322 },
{ "nom": "Champétières" , "lat": 45.5184233 , "lon": 3.6940888 , "pop": 282 },
{ "nom": "Chaumont-le-Bourg" , "lat": 45.4506089 , "lon": 3.7693700 , "pop": 238 },
{ "nom": "Doranges" , "lat": 45.4063368 , "lon": 3.6158314 , "pop": 178 },
{ "nom": "Dore-l'Église" , "lat": 45.3819157 , "lon": 3.7534915 , "pop": 656 },
{ "nom": "Églisolles" , "lat": 45.4550115 , "lon": 3.8861982 , "pop": 308 },
{ "nom": "Grandrif" , "lat": 45.5051740 , "lon": 3.8171034 , "pop": 199 },
{ "nom": "Job" , "lat": 45.6155198 , "lon": 3.7450101 , "pop": 1016 },
{ "nom": "La Chaulme" , "lat": 45.4654876 , "lon": 3.9448616 , "pop": 118 },
{ "nom": "La Forie" , "lat": 45.5904834 , "lon": 3.7621415 , "pop": 317 },
{ "nom": "Marsac-en-Livradois" , "lat": 45.4792851 , "lon":  3.7264493 , "pop": 1381 },
{ "nom": "Mayres" , "lat": 45.3882416 , "lon": 3.6945339 , "pop": 197 },
{ "nom": "Medeyrolles" , "lat": 45.4045427 , "lon": 3.8036659 , "pop": 113 },
{ "nom": "Novacelles" , "lat": 45.4376515 , "lon": 3.6503961 , "pop": 155 },
{ "nom": "Saillant" , "lat": 45.4567294 , "lon": 3.9144145 , "pop": 315 },
{ "nom": "Saint-Alyre-d'Arlanc" , "lat": 45.3676651 , "lon": 3.6382427 , "pop": 132 },
{ "nom": "Saint-Anthème" , "lat": 45.5269660 , "lon": 3.9176159 , "pop": 716 },
{ "nom": "Saint-Clément-de-Valorgue" , "lat": 45.5002722 , "lon": 3.9224170 , "pop": 239 },
{ "nom": "Saint-Ferréol-des-Côtes" , "lat": 45.5286092 , "lon": 3.7072096 , "pop": 548 },
{ "nom": "Saint-Just" , "lat": 45.4665097 , "lon": 3.7886357 , "pop": 144 },
{ "nom": "Saint-Martin-des-Olmes" , "lat": 45.5308966 , "lon": 3.7978678 , "pop": 313 },
{ "nom": "Saint-Romain" , "lat": 45.4901302 , "lon": 3.8973566 , "pop": 197 },
{ "nom": "Saint-Sauveur-la-Sagne" , "lat": 45.3981575 , "lon": 3.6692692 , "pop": 82 },
{ "nom": "Sauvessanges" , "lat": 45.3921371 , "lon": 3.8722443 , "pop": 531 },
{ "nom": "Thiolières" , "lat": 45.5842870 , "lon": 3.6912580 , "pop": 164 },
{ "nom": "Valcivières" , "lat": 45.5929887 , "lon": 3.7957427 , "pop": 227 },
{ "nom": "Viverols" , "lat": 45.4337395 , "lon": 3.8835988 , "pop": 442 },
{ "nom": "Aubière" , "lat": 45.7511750 , "lon": 3.1106780 , "pop": 10459 },
{ "nom": "Pérignat-lès-Sarliève" , "lat": 45.7364034 , "lon": 3.1412141 , "pop": 2872 },
{ "nom": "Romagnat" , "lat": 45.7310529 , "lon": 3.0998865 , "pop": 7894 },
{ "nom": "Beaumont" , "lat": 45.7539108 , "lon": 3.0852366 , "pop": 10728 },
{ "nom": "Ceyrat" , "lat": 45.7335901 , "lon": 3.0639629 , "pop": 6592 },
{ "nom": "Saint-Genès-Champanelle" , "lat": 45.7194183 , "lon": 3.0179086 , "pop": 4066 },
{ "nom": "Beauregard-l'Évêque" , "lat": 45.8120281 , "lon": 3.2995100 , "pop": 1586 },
{ "nom": "Billom" , "lat": 45.7235141 , "lon": 3.3395210 , "pop": 4805 },
{ "nom": "Bongheat" , "lat": 45.7271786 , "lon": 3.4260391 , "pop": 465 },
{ "nom": "Bouzel" , "lat": 45.7773620 , "lon": 3.3169315 , "pop": 703 },
{ "nom": "Chas" , "lat": 45.7486460 , "lon": 3.3015100 , "pop": 361 },
{ "nom": "Chauriat" , "lat": 45.7508939 , "lon": 3.2794519 , "pop": 1805 },
{ "nom": "Égliseneuve-près-Billom" , "lat": 45.7226577 , "lon": 3.3907501 , "pop": 937 },
{ "nom": "Espirat" , "lat": 45.7510561 , "lon": 3.3361082 , "pop": 416 },
{ "nom": "Estandeuil" , "lat": 45.6797604 , "lon": 3.4422240 , "pop": 512 },
{ "nom": "Fayet-le-Château" , "lat": 45.6779708 , "lon": 3.4115653 , "pop": 381 },
{ "nom": "Glaine-Montaigut" , "lat": 45.7553039 , "lon": 3.3880399 , "pop": 606 },
{ "nom": "Isserteaux" , "lat": 45.6522742 , "lon": 3.3870196 , "pop": 416 },
{ "nom": "Mauzun" , "lat": 45.7033687 , "lon": 3.4313944 , "pop": 140 },
{ "nom": "Montmorin" , "lat": 45.6950619 , "lon": 3.3498415 , "pop": 731 },
{ "nom": "Neuville" , "lat": 45.7455081 , "lon": 3.4363200 , "pop": 373 },
{ "nom": "Reignat" , "lat": 45.7486887 , "lon": 3.3600202 , "pop": 382 },
{ "nom": "Saint-Bonnet-lès-Allier" , "lat": 45.7428856 , "lon": 3.2557834 , "pop": 409 },
{ "nom": "Saint-Dier-d'Auvergne" , "lat": 45.6755629 , "lon": 3.4828320 , "pop": 556 },
{ "nom": "Saint-Jean-des-Ollières" , "lat": 45.6939935 , "lon": 3.4347105 , "pop": 459 },
{ "nom": "Saint-Julien-de-Coppel" , "lat": 45.6936361 , "lon": 3.3098030 , "pop": 1281 },
{ "nom": "Trézioux" , "lat": 45.7220266 , "lon": 3.4702863 , "pop": 502 },
{ "nom": "Vassel" , "lat": 45.7647335 , "lon": 3.3086866 , "pop": 295 },
{ "nom": "Vertaizon" , "lat": 45.7706762 , "lon": 3.2878057 , "pop": 3527 },
{ "nom": "Antoingt" , "lat": 45.5003909 , "lon": 3.1736878 , "pop": 413 },
{ "nom": "Anzat-le-Luguet" , "lat": 45.3315927 , "lon": 3.0415779 , "pop": 167 },
{ "nom": "Apchat" , "lat": 45.3894842 , "lon": 3.1451998 , "pop": 162 },
{ "nom": "Ardes" , "lat": 45.4040980 , "lon": 3.1267720 , "pop": 592 },
{ "nom": "Augnat" , "lat": 45.4116220 , "lon": 3.1811769 , "pop": 183 },
{ "nom": "Auzat-la-Combelle" , "lat": 45.4524870 , "lon": 3.3182590 , "pop": 1956 },
{ "nom": "Bansat" , "lat": 45.4834192 , "lon": 3.3439171 , "pop": 264 },
{ "nom": "Beaulieu" , "lat": 45.4445369 , "lon": 3.2853980 , "pop": 473 },
{ "nom": "Bergonne" , "lat": 45.5071460 , "lon": 3.2203190 , "pop": 329 },
{ "nom": "Boudes" , "lat": 45.4587616 , "lon": 3.1850219 , "pop": 260 },
{ "nom": "Brassac-les-Mines" , "lat": 45.4135178 , "lon": 3.3284991 , "pop": 3412 },
{ "nom": "Chalus" , "lat": 45.4664050 , "lon": 3.2096079 , "pop": 177 },
{ "nom": "Champagnat-le-Jeune" , "lat": 45.4498893 , "lon": 3.4268017 , "pop": 149 },
{ "nom": "Charbonnier-les-Mines" , "lat": 45.4179597 , "lon": 3.2844247 , "pop": 930 },
{ "nom": "Chassagne" , "lat": 45.4975516 , "lon": 3.0762266 , "pop": 76 },
{ "nom": "Collanges" , "lat": 45.4371666 , "lon": 3.2175725 , "pop": 157 },
{ "nom": "Dauzat-sur-Vodable" , "lat": 45.4821390 , "lon": 3.0988694 , "pop": 70 },
{ "nom": "Égliseneuve-des-Liards" , "lat": 45.5681948 , "lon": 3.4242225 , "pop": 157 },
{ "nom": "Esteil" , "lat": 45.4522834 , "lon": 3.3659496 , "pop": 54 },
{ "nom": "Gignat" , "lat": 45.4801150 , "lon": 3.2195049 , "pop": 257 },
{ "nom": "Jumeaux" , "lat": 45.4292294 , "lon": 3.3403143 , "pop": 559 },
{ "nom": "La Chapelle-Marcousse" , "lat": 45.4470515 , "lon": 3.0970341 , "pop": 63 },
{ "nom": "La Chapelle-sur-Usson" , "lat": 45.4651320 , "lon": 3.3992274 , "pop": 85 },
{ "nom": "La Godivelle" , "lat": 45.3884402 , "lon": 2.9236388 , "pop": 19 },
{ "nom": "Lamontgie" , "lat": 45.4743152 , "lon": 3.3329481 , "pop": 643 },
{ "nom": "Le Breuil-sur-Couze" , "lat": 45.4699721 , "lon": 3.2631053 , "pop": 1028 },
{ "nom": "Le Vernet-Chaméane" , "lat": 45.4740894 , "lon": 3.4518172 , "pop": 775 },
{ "nom": "Les Pradeaux" , "lat": 45.5116384 , "lon": 3.2952889 , "pop": 351 },
{ "nom": "Madriat" , "lat": 45.4320440 , "lon": 3.1874293 , "pop": 136 },
{ "nom": "Mareugheol" , "lat": 45.4878453 , "lon": 3.1663837 , "pop": 215 },
{ "nom": "Mazoires" , "lat": 45.3941503 , "lon": 3.0444354 , "pop": 97 },
{ "nom": "Moriat" , "lat": 45.4046808 , "lon": 3.2621181 , "pop": 392 },
{ "nom": "Nonette-Orsonnette" , "lat": 45.4750379 , "lon": 3.2787625 , "pop": 625 },
{ "nom": "Parentignat" , "lat": 45.5332711 , "lon": 3.2900234 , "pop": 480 },
{ "nom": "Peslières" , "lat": 45.4391371 , "lon": 3.4596512 , "pop": 56 },
{ "nom": "Rentières" , "lat": 45.4173789 , "lon": 3.0995370 , "pop": 106 },
{ "nom": "Roche-Charles-la-Mayrand" , "lat": 45.4454711 , "lon": 3.0547825 , "pop": 39 },
{ "nom": "Saint-Alyre-ès-Montagne" , "lat": 45.3891572 , "lon": 2.9914557 , "pop": 102 },
{ "nom": "Saint-Étienne-sur-Usson" , "lat": 45.5053342 , "lon": 3.4127708 , "pop": 268 },
{ "nom": "Saint-Genès-la-Tourette" , "lat": 45.5107404 , "lon": 3.4723923 , "pop": 195 },
{ "nom": "Saint-Germain-Lembron" , "lat": 45.4575066 , "lon": 3.2381671 , "pop": 2031 },
{ "nom": "Saint-Gervazy" , "lat": 45.4139322 , "lon": 3.2171486 , "pop": 340 },
{ "nom": "Saint-Hérent" , "lat": 45.4581651 , "lon": 3.1516256 , "pop": 111 },
{ "nom": "Saint-Jean-en-Val" , "lat": 45.5222603 , "lon": 3.3557219 , "pop": 356 },
{ "nom": "Saint-Jean-Saint-Gervais" , "lat": 45.4210158 , "lon": 3.3678246 , "pop": 126 },
{ "nom": "Saint-Martin-d'Ollières" , "lat": 45.4207857 , "lon": 3.4500007 , "pop": 149 },
{ "nom": "Saint-Martin-des-Plains" , "lat": 45.4914283 , "lon": 3.3195757 , "pop": 178 },
{ "nom": "Saint-Quentin-sur-Sauxillanges" , "lat": 45.5501047 , "lon": 3.3943457 , "pop": 109 },
{ "nom": "Saint-Rémy-de-Chargnat" , "lat": 45.5138990 , "lon": 3.3222790 , "pop": 631 },
{ "nom": "Sauxillanges" , "lat": 45.5505979 , "lon": 3.3712023 , "pop": 1316 },
{ "nom": "Sugères" , "lat": 45.5992776 , "lon": 3.4050002 , "pop": 648 },
{ "nom": "Ternant-les-Eaux" , "lat": 45.4788160 , "lon": 3.1314566 , "pop": 59 },
{ "nom": "Usson" , "lat": 45.5275083 , "lon": 3.3372541 , "pop": 286 },
{ "nom": "Valz-sous-Châteauneuf" , "lat": 45.4336871 , "lon": 3.4156810 , "pop": 52 },
{ "nom": "Varennes-sur-Usson" , "lat": 45.5313733 , "lon": 3.3049773 , "pop": 317 },
{ "nom": "Vichel" , "lat": 45.4281857 , "lon": 3.2445656 , "pop": 327 },
{ "nom": "Villeneuve" , "lat": 45.4774334 , "lon": 3.1859913 , "pop": 135 },
{ "nom": "Blanzat" , "lat": 45.8289430 , "lon": 3.0778979 , "pop": 3709 },
{ "nom": "Cébazat" , "lat": 45.8308979 , "lon": 3.1005476 , "pop": 8953 },
{ "nom": "Durtol" , "lat": 45.7949820 , "lon": 3.0553309 , "pop": 1914 },
{ "nom": "Nohanent" , "lat": 45.8088735 , "lon": 3.0561097 , "pop": 2203 },
{ "nom": "Sayat" , "lat": 45.8265249 , "lon": 3.0525260 , "pop": 2529 },
{ "nom": "Chamalières" , "lat": 45.7741708 , "lon": 3.0613236 , "pop": 17509 },
{ "nom": "Royat" , "lat": 45.7641087 , "lon": 3.0547893 , "pop": 4479 },
{ "nom": "Châteaugay" , "lat": 45.8498535 , "lon": 3.0830763 , "pop": 3189 },
{ "nom": "Châtel-Guyon" , "lat": 45.9202500 , "lon": 3.0692088 , "pop": 6299 },
{ "nom": "Enval" , "lat": 45.8984065 , "lon": 3.0500901 , "pop": 1596 },
{ "nom": "Malauzat" , "lat": 45.8450837 , "lon": 3.0546008 , "pop": 1160 },
{ "nom": "Marsat" , "lat": 45.8756210 , "lon": 3.0823050 , "pop": 1426 },
{ "nom": "Ménétrol" , "lat": 45.8722234 , "lon": 3.1245059 , "pop": 1640 },
{ "nom": "Mozac" , "lat": 45.8921500 , "lon": 3.0922336 , "pop": 3957 },
{ "nom": "Volvic" , "lat": 45.8710664 , "lon": 3.0396606 , "pop": 4883 },
{ "nom": "Clermont-Ferrand" , "lat": 45.7795103 , "lon": 3.1170819 , "pop": 146351 },
{ "nom": "Cournon-d'Auvergne" , "lat": 45.7398138 , "lon": 3.1979189 , "pop": 19951 },
{ "nom": "Le Cendre" , "lat": 45.7202710 , "lon": 3.1882465 , "pop": 5415 },
{ "nom": "Aulnat" , "lat": 45.7952598 , "lon": 3.1632685 , "pop": 4139 },
{ "nom": "Gerzat" , "lat": 45.8241434 , "lon": 3.1434179 , "pop": 10335 },
{ "nom": "Malintrat" , "lat": 45.8128389 , "lon": 3.1871350 , "pop": 1151 },
{ "nom": "Saint-Beauzire" , "lat": 45.8502390 , "lon": 3.1812144 , "pop": 2210 },
{ "nom": "Aulhat-Flat" , "lat": 45.5726475 , "lon": 3.3122253 , "pop": 944 },
{ "nom": "Brenat" , "lat": 45.5525106 , "lon": 3.3093854 , "pop": 629 },
{ "nom": "Issoire" , "lat": 45.5409684 , "lon": 3.2495641 , "pop": 15115 },
{ "nom": "Le Broc" , "lat": 45.5002947 , "lon": 3.2439940 , "pop": 623 },
{ "nom": "Meilhaud" , "lat": 45.5456297 , "lon": 3.1616958 , "pop": 507 },
{ "nom": "Orbeil" , "lat": 45.5613398 , "lon": 3.2805964 , "pop": 883 },
{ "nom": "Pardines" , "lat": 45.5626324 , "lon": 3.1730340 , "pop": 302 },
{ "nom": "Perrier" , "lat": 45.5461230 , "lon": 3.1981575 , "pop": 925 },
{ "nom": "Saint-Babel" , "lat": 45.5966010 , "lon": 3.3004680 , "pop": 948 },
{ "nom": "Saint-Yvoine" , "lat": 45.5848790 , "lon": 3.2382600 , "pop": 553 },
{ "nom": "Bort-l'Étang" , "lat": 45.7830903 , "lon": 3.4266671 , "pop": 727 },
{ "nom": "Bulhon" , "lat": 45.8927675 , "lon": 3.3877351 , "pop": 607 },
{ "nom": "Crevant-Laveine" , "lat": 45.9130690 , "lon": 3.3720480 , "pop": 967 },
{ "nom": "Culhat" , "lat": 45.8644750 , "lon": 3.3359610 , "pop": 1182 },
{ "nom": "Joze" , "lat": 45.8639450 , "lon": 3.3018360 , "pop": 1183 },
{ "nom": "Lempty" , "lat": 45.8273980 , "lon": 3.3316960 , "pop": 417 },
{ "nom": "Lezoux" , "lat": 45.8275451 , "lon": 3.3782713 , "pop": 6528 },
{ "nom": "Moissat" , "lat": 45.7751271 , "lon": 3.3537012 , "pop": 1253 },
{ "nom": "Orléat" , "lat": 45.8598880 , "lon": 3.4212070 , "pop": 2242 },
{ "nom": "Peschadoires" , "lat": 45.8268949 , "lon": 3.4918594 , "pop": 2104 },
{ "nom": "Ravel" , "lat": 45.7788528 , "lon": 3.3956278 , "pop": 739 },
{ "nom": "Saint-Jean-d'Heurs" , "lat": 45.8185462 , "lon": 3.4463891 , "pop": 703 },
{ "nom": "Seychalles" , "lat": 45.8040700 , "lon": 3.3395600 , "pop": 785 },
{ "nom": "Vinzelles" , "lat": 45.9258977 , "lon": 3.3974582 , "pop": 373 },
{ "nom": "Bas-et-Lezat" , "lat": 46.0239393 , "lon": 3.2983489 , "pop": 352 },
{ "nom": "Beaumont-lès-Randan" , "lat": 45.9975291 , "lon": 3.3834564 , "pop": 312 },
{ "nom": "Charnat" , "lat": 45.9440400 , "lon": 3.4319880 , "pop": 207 },
{ "nom": "Châteldon" , "lat": 45.9774309 , "lon": 3.5199300 , "pop": 740 },
{ "nom": "Lachaux" , "lat": 45.9942273 , "lon": 3.5942586 , "pop": 273 },
{ "nom": "Limons" , "lat": 45.9721936 , "lon": 3.4444884 , "pop": 721 },
{ "nom": "Luzillat" , "lat": 45.9460471 , "lon": 3.3885254 , "pop": 1163 },
{ "nom": "Maringues" , "lat": 45.9221353 , "lon": 3.3287754 , "pop": 3141 },
{ "nom": "Mons" , "lat": 46.0017045 , "lon": 3.4159803 , "pop": 578 },
{ "nom": "Noalhat" , "lat": 45.9153393 , "lon": 3.4567941 , "pop": 228 },
{ "nom": "Paslières" , "lat": 45.9278565 , "lon": 3.4986067 , "pop": 1491 },
{ "nom": "Puy-Guillaume" , "lat": 45.9598481 , "lon": 3.4740357 , "pop": 2630 },
{ "nom": "Randan" , "lat": 46.0139406 , "lon": 3.3535561 , "pop": 1619 },
{ "nom": "Ris" , "lat": 45.9986760 , "lon": 3.5059884 , "pop": 718 },
{ "nom": "Saint-André-le-Coq" , "lat": 45.9636520 , "lon": 3.3106610 , "pop": 578 },
{ "nom": "Saint-Clément-de-Régnat" , "lat": 46.0001982 , "lon": 3.2973423 , "pop": 516 },
{ "nom": "Saint-Denis-Combarnazat" , "lat": 45.9651120 , "lon": 3.3335781 , "pop": 248 },
{ "nom": "Saint-Priest-Bramefant" , "lat": 46.0278036 , "lon": 3.4412958 , "pop": 871 },
{ "nom": "Saint-Sylvestre-Pragoulin" , "lat": 46.0544115 , "lon": 3.3941746 , "pop": 1063 },
{ "nom": "Villeneuve-les-Cerfs" , "lat": 46.0096992 , "lon": 3.3318534 , "pop": 514 },
{ "nom": "Authezat" , "lat": 45.6333233 , "lon": 3.1866701 , "pop": 661 },
{ "nom": "Chanonat" , "lat": 45.6925300 , "lon": 3.0962641 , "pop": 1729 },
{ "nom": "Corent" , "lat": 45.6655311 , "lon": 3.1942510 , "pop": 799 },
{ "nom": "La Roche-Blanche" , "lat": 45.7031389 , "lon": 3.1306242 , "pop": 3311 },
{ "nom": "La Sauvetat" , "lat": 45.6347900 , "lon": 3.1695640 , "pop": 737 },
{ "nom": "Le Crest" , "lat": 45.6854010 , "lon": 3.1270070 , "pop": 1300 },
{ "nom": "Les Martres-de-Veyre" , "lat": 45.6810434 , "lon": 3.1911570 , "pop": 3826 },
{ "nom": "Orcet" , "lat": 45.7032079 , "lon": 3.1690330 , "pop": 2897 },
{ "nom": "Saint-Amant-Tallende" , "lat": 45.6692890 , "lon": 3.1078250 , "pop": 1866 },
{ "nom": "Tallende" , "lat": 45.6711901 , "lon": 3.1241580 , "pop": 1619 },
{ "nom": "Veyre-Monton" , "lat": 45.6762161 , "lon": 3.1585652 , "pop": 3721 },
{ "nom": "Aix-la-Fayette" , "lat": 45.5169311 , "lon": 3.5213169 , "pop": 97 },
{ "nom": "Aubusson-d'Auvergne" , "lat": 45.7553088 , "lon": 3.6178505 , "pop": 215 },
{ "nom": "Augerolles" , "lat": 45.7238870 , "lon": 3.6195720 , "pop": 862 },
{ "nom": "Auzelles" , "lat": 45.6012440 , "lon": 3.5090520 , "pop": 391 },
{ "nom": "Bertignat" , "lat": 45.6180697 , "lon": 3.6808913 , "pop": 483 },
{ "nom": "Brousse" , "lat": 45.6018260 , "lon": 3.4583050 , "pop": 372 },
{ "nom": "Ceilloux" , "lat": 45.6526296 , "lon": 3.5148089 , "pop": 174 },
{ "nom": "Chambon-sur-Dolore" , "lat": 45.4969810 , "lon": 3.6125940 , "pop": 141 },
{ "nom": "Condat-lès-Montboissier" , "lat": 45.5505076 , "lon": 3.4996080 , "pop": 228 },
{ "nom": "Courpière" , "lat": 45.7547407 , "lon": 3.5381841 , "pop": 4166 },
{ "nom": "Cunlhat" , "lat": 45.6323684 , "lon": 3.5599215 , "pop": 1260 },
{ "nom": "Domaize" , "lat": 45.6883544 , "lon": 3.5342972 , "pop": 386 },
{ "nom": "Échandelys" , "lat": 45.5438741 , "lon": 3.5298268 , "pop": 248 },
{ "nom": "Fayet-Ronaye" , "lat": 45.4253821 , "lon": 3.5355819 , "pop": 116 },
{ "nom": "Fournols" , "lat": 45.5173166 , "lon": 3.5881309 , "pop": 313 },
{ "nom": "Grandval" , "lat": 45.5982426 , "lon": 3.6466097 , "pop": 123 },
{ "nom": "La Chapelle-Agnon" , "lat": 45.6327550 , "lon": 3.6379130 , "pop": 361 },
{ "nom": "La Renaudie" , "lat": 45.7350561 , "lon": 3.7204479 , "pop": 132 },
{ "nom": "Le Brugeron" , "lat": 45.7115430 , "lon": 3.7193906 , "pop": 256 },
{ "nom": "Le Monestier" , "lat": 45.5635063 , "lon": 3.6622804 , "pop": 242 },
{ "nom": "Marat" , "lat": 45.6594621 , "lon": 3.6829683 , "pop": 801 },
{ "nom": "Néronde-sur-Dore" , "lat": 45.7981535 , "lon": 3.5212021 , "pop": 483 },
{ "nom": "Olliergues" , "lat": 45.6757943 , "lon": 3.6370058 , "pop": 736 },
{ "nom": "Olmet" , "lat": 45.7114140 , "lon": 3.6609630 , "pop": 192 },
{ "nom": "Saint-Amant-Roche-Savine" , "lat": 45.5752858 , "lon": 3.6315262 , "pop": 534 },
{ "nom": "Saint-Bonnet-le-Bourg" , "lat": 45.4346025 , "lon": 3.6084966 , "pop": 186 },
{ "nom": "Saint-Bonnet-le-Chastel" , "lat": 45.4499402 , "lon": 3.6339887 , "pop": 211 },
{ "nom": "Saint-Éloy-la-Glacière" , "lat": 45.5601570 , "lon": 3.5739468 , "pop": 63 },
{ "nom": "Saint-Flour-l'Étang" , "lat": 45.7097527 , "lon": 3.5057763 , "pop": 268 },
{ "nom": "Saint-Germain-l'Herm" , "lat": 45.4579108 , "lon": 3.5420061 , "pop": 482 },
{ "nom": "Saint-Gervais-sous-Meymont" , "lat": 45.6899630 , "lon": 3.6077020 , "pop": 213 },
{ "nom": "Saint-Pierre-la-Bourlhonne" , "lat": 45.6746948 , "lon": 3.7428645 , "pop": 136 },
{ "nom": "Sainte-Catherine" , "lat": 45.4511022 , "lon": 3.4740446 , "pop": 57 },
{ "nom": "Sauviat" , "lat": 45.7150714 , "lon": 3.5346508 , "pop": 588 },
{ "nom": "Sermentizon" , "lat": 45.7626620 , "lon": 3.5010370 , "pop": 605 },
{ "nom": "Tours-sur-Meymont" , "lat": 45.6704199 , "lon": 3.5774469 , "pop": 542 },
{ "nom": "Vertolaye" , "lat": 45.6482440 , "lon": 3.7074152 , "pop": 562 },
{ "nom": "Vollore-Ville" , "lat": 45.7860665 , "lon": 3.6002556 , "pop": 718 },
{ "nom": "Aurières" , "lat": 45.6832707 , "lon": 2.9061577 , "pop": 373 },
{ "nom": "Aydat" , "lat": 45.6700118 , "lon": 3.0048197 , "pop": 2574 },
{ "nom": "Ceyssat" , "lat": 45.7637930 , "lon": 2.8960400 , "pop": 697 },
{ "nom": "Chanat-la-Mouteyre" , "lat": 45.8299573 , "lon": 3.0143095 , "pop": 950 },
{ "nom": "Cournols" , "lat": 45.6468696 , "lon": 3.0344145 , "pop": 230 },
{ "nom": "Gelles" , "lat": 45.7691635 , "lon": 2.7636397 , "pop": 921 },
{ "nom": "Heume-l'Église" , "lat": 45.7202016 , "lon": 2.7325404 , "pop": 113 },
{ "nom": "Laqueuille" , "lat": 45.6508162 , "lon":  2.7325228 , "pop": 351 },
{ "nom": "Le Vernet-Sainte-Marguerite" , "lat": 45.6095862 , "lon": 2.9490107 , "pop": 327 },
{ "nom": "Mazaye" , "lat": 45.7854720 , "lon": 2.8606068 , "pop": 719 },
{ "nom": "Nébouzat" , "lat": 45.7163600 , "lon": 2.9038689 , "pop": 867 },
{ "nom": "Olby" , "lat": 45.7432901 , "lon": 2.8670294 , "pop": 857 },
{ "nom": "Olloix" , "lat": 45.6220002 , "lon": 3.0467252 , "pop": 331 },
{ "nom": "Orcines" , "lat": 45.7800107 , "lon": 3.0219850 , "pop": 3609 },
{ "nom": "Orcival" , "lat": 45.6830105 , "lon": 2.8419574 , "pop": 240 },
{ "nom": "Perpezat" , "lat": 45.6792463 , "lon": 2.7738972 , "pop": 420 },
{ "nom": "Rochefort-Montagne" , "lat": 45.6847797 , "lon": 2.8040470 , "pop": 844 },
{ "nom": "Saint-Bonnet-près-Orcival" , "lat": 45.7066517 , "lon": 2.8589573 , "pop": 571 },
{ "nom": "Saint-Pierre-Roche" , "lat": 45.7261739 , "lon":  2.8248638 , "pop": 499 },
{ "nom": "Saint-Sandoux" , "lat": 45.6408520 , "lon": 3.1068970 , "pop": 992 },
{ "nom": "Saint-Saturnin" , "lat": 45.6606530 , "lon": 3.0903630 , "pop": 1164 },
{ "nom": "Saulzet-le-Froid" , "lat": 45.6417025 , "lon": 2.9188674 , "pop": 284 },
{ "nom": "Vernines" , "lat": 45.6691974 , "lon": 2.8780785 , "pop": 430 },
{ "nom": "Lempdes" , "lat": 45.7698430 , "lon": 3.1974370 , "pop": 8709 },
{ "nom": "Mur-sur-Allier" , "lat": 45.7538435 , "lon": 3.2430847 , "pop": 3111 },
{ "nom": "Pont-du-Château" , "lat": 45.7964024 , "lon": 3.2465594 , "pop": 12412 },
{ "nom": "Chambaron sur Morge" , "lat": 45.9471847 , "lon": 3.1411995 , "pop": 1766 },
{ "nom": "Le Cheix-sur-Morge" , "lat": 45.9589632 , "lon": 3.1740388 , "pop": 695 },
{ "nom": "Pessat-Villeneuve" , "lat": 45.9267714 , "lon": 3.1566789 , "pop": 745 },
{ "nom": "Riom" , "lat": 45.8933822 , "lon": 3.1144437 , "pop": 18820 },
{ "nom": "Saint-Bonnet-près-Riom" , "lat": 45.9271230 , "lon": 3.1142256 , "pop": 2110 },
{ "nom": "Ars-les-Favets" , "lat": 46.1933922 , "lon": 2.7550045 , "pop": 220 },
{ "nom": "Ayat-sur-Sioule" , "lat": 46.0500548 , "lon": 2.8894460 , "pop": 138 },
{ "nom": "Biollet" , "lat": 45.9929107 , "lon": 2.6826446 , "pop": 309 },
{ "nom": "Bussières" , "lat": 46.0699216 , "lon": 2.6331106 , "pop": 109 },
{ "nom": "Buxières-sous-Montaigut" , "lat": 46.2043000 , "lon": 2.8469950 , "pop": 244 },
{ "nom": "Charensat" , "lat": 45.9860183 , "lon": 2.6369367 , "pop": 470 },
{ "nom": "Château-sur-Cher" , "lat": 46.1180900 , "lon": 2.5561050 , "pop": 71 },
{ "nom": "Châteauneuf-les-Bains" , "lat": 46.0272091 , "lon": 2.8974831 , "pop": 301 },
{ "nom": "Durmignat" , "lat": 46.1866833 , "lon": 2.8891451 , "pop": 214 },
{ "nom": "Espinasse" , "lat": 46.0381101 , "lon": 2.7112645 , "pop": 274 },
{ "nom": "Gouttières" , "lat": 46.0625503 , "lon": 2.7700833 , "pop": 298 },
{ "nom": "La Cellette" , "lat": 46.1025470 , "lon": 2.7203450 , "pop": 169 },
{ "nom": "La Crouzille" , "lat": 46.1811717 , "lon": 2.7461446 , "pop": 262 },
{ "nom": "Lapeyrouse" , "lat": 46.2247403 , "lon": 2.8727102 , "pop": 521 },
{ "nom": "Le Quartier" , "lat": 46.1229633 , "lon": 2.7635798 , "pop": 225 },
{ "nom": "Menat" , "lat": 46.1041839 , "lon": 2.9044360 , "pop": 547 },
{ "nom": "Montaigut-en-Combraille" , "lat": 46.1802475 , "lon": 2.8083464 , "pop": 972 },
{ "nom": "Moureuille" , "lat": 46.1664320 , "lon": 2.9068541 , "pop": 371 },
{ "nom": "Neuf-Église" , "lat": 46.0961216 , "lon": 2.8898728 , "pop": 332 },
{ "nom": "Pionsat" , "lat": 46.1099378 , "lon": 2.6947083 , "pop": 1042 },
{ "nom": "Roche-d'Agoux" , "lat": 46.0436358 , "lon": 2.6324362 , "pop": 110 },
{ "nom": "Saint-Éloy-les-Mines" , "lat": 46.1608608 , "lon": 2.8344061 , "pop": 3480 },
{ "nom": "Saint-Gervais-d'Auvergne" , "lat": 46.0295270 , "lon": 2.8210460 , "pop": 1192 },
{ "nom": "Saint-Hilaire" , "lat": 46.1054778 , "lon": 2.6317128 , "pop": 144 },
{ "nom": "Saint-Julien-la-Geneste" , "lat": 46.0510971 , "lon": 2.7337591 , "pop": 117 },
{ "nom": "Saint-Maigner" , "lat": 46.0876096 , "lon": 2.6851862 , "pop": 162 },
{ "nom": "Saint-Maurice-près-Pionsat" , "lat": 46.0656380 , "lon": 2.6024250 , "pop": 358 },
{ "nom": "Saint-Priest-des-Champs" , "lat": 45.9918472 , "lon": 2.7643769 , "pop": 736 },
{ "nom": "Sainte-Christine" , "lat": 46.0669710 , "lon": 2.8339020 , "pop": 122 },
{ "nom": "Sauret-Besserve" , "lat": 45.9932968 , "lon": 2.8085293 , "pop": 163 },
{ "nom": "Servant" , "lat": 46.1387026 , "lon": 2.9289412 , "pop": 558 },
{ "nom": "Teilhet" , "lat": 46.0956903 , "lon": 2.8203312 , "pop": 286 },
{ "nom": "Vergheas" , "lat": 46.0295751 , "lon": 2.6148529 , "pop": 65 },
{ "nom": "Virlet" , "lat": 46.1551338 , "lon": 2.6977538 , "pop": 270 },
{ "nom": "Youx" , "lat": 46.1446189 , "lon": 2.7999570 , "pop": 884 },
{ "nom": "Beauregard-Vendon" , "lat": 45.9588085 , "lon": 3.1113422 , "pop": 1328 },
{ "nom": "Blot-l'Église" , "lat": 46.0372376 , "lon": 2.9544304 , "pop": 436 },
{ "nom": "Champs" , "lat": 46.0564255 , "lon": 3.0836178 , "pop": 441 },
{ "nom": "Charbonnières-les-Vieilles" , "lat": 45.9953121 , "lon": 2.9987995 , "pop": 1170 },
{ "nom": "Combronde" , "lat": 45.9826174 , "lon": 3.0881947 , "pop": 2138 },
{ "nom": "Davayat" , "lat": 45.9472152 , "lon": 3.1115415 , "pop": 666 },
{ "nom": "Gimeaux" , "lat": 45.9493412 , "lon": 3.0942299 , "pop": 383 },
{ "nom": "Jozerand" , "lat": 46.0252501 , "lon": 3.0992359 , "pop": 553 },
{ "nom": "Les Ancizes-Comps" , "lat": 45.9256637 , "lon": 2.8080537 , "pop": 1682 },
{ "nom": "Lisseuil" , "lat": 46.0633468 , "lon": 2.9189558 , "pop": 107 },
{ "nom": "Loubeyrat" , "lat": 45.9353378 , "lon": 3.0108492 , "pop": 1437 },
{ "nom": "Manzat" , "lat": 45.9621255 , "lon": 2.9410450 , "pop": 1426 },
{ "nom": "Marcillat" , "lat": 46.0791640 , "lon": 3.0373929 , "pop": 340 },
{ "nom": "Montcel" , "lat": 46.0141924 , "lon": 3.0660460 , "pop": 550 },
{ "nom": "Pouzol" , "lat": 46.0905472 , "lon":  2.9693876 , "pop": 274 },
{ "nom": "Prompsat" , "lat": 45.9491090 , "lon": 3.0779869 , "pop": 472 },
{ "nom": "Queuille" , "lat": 45.9706170 , "lon": 2.8449900 , "pop": 284 },
{ "nom": "Saint-Angel" , "lat": 45.9953030 , "lon": 2.9335800 , "pop": 467 },
{ "nom": "Saint-Gal-sur-Sioule" , "lat": 46.1110521 , "lon": 3.0097361 , "pop": 148 },
{ "nom": "Saint-Georges-de-Mons" , "lat": 45.9382391 , "lon": 2.8409410 , "pop": 2048 },
{ "nom": "Saint-Hilaire-la-Croix" , "lat": 46.0461601 , "lon": 3.0467706 , "pop": 374 },
{ "nom": "Saint-Myon" , "lat": 45.9932290 , "lon": 3.1312630 , "pop": 544 },
{ "nom": "Saint-Pardoux" , "lat": 46.0561840 , "lon": 3.0168220 , "pop": 428 },
{ "nom": "Saint-Quintin-sur-Sioule" , "lat": 46.0997664 , "lon": 3.0706298 , "pop": 387 },
{ "nom": "Saint-Rémy-de-Blot" , "lat": 46.0779656 , "lon": 2.9299766 , "pop": 251 },
{ "nom": "Teilhède" , "lat": 45.9555330 , "lon": 3.0725260 , "pop": 536 },
{ "nom": "Vitrac" , "lat": 45.9689390 , "lon": 2.8769610 , "pop": 336 },
{ "nom": "Yssac-la-Tourette" , "lat": 45.9350810 , "lon": 3.0944973 , "pop": 396 },
{ "nom": "Bourg-Lastic" , "lat": 45.6474946 , "lon": 2.5573254 , "pop": 874 },
{ "nom": "Briffons" , "lat": 45.6992990 , "lon": 2.6569319 , "pop": 267 },
{ "nom": "Bromont-Lamothe" , "lat": 45.8425794 , "lon": 2.8210831 , "pop": 1032 },
{ "nom": "Chapdes-Beaufort" , "lat": 45.8902135 , "lon": 2.8660583 , "pop": 1140 },
{ "nom": "Charbonnières-les-Varennes" , "lat": 45.9076720 , "lon": 2.9986668 , "pop": 1935 },
{ "nom": "Cisternes-la-Forêt" , "lat": 45.7892788 , "lon": 2.7053833 , "pop": 443 },
{ "nom": "Combrailles" , "lat": 45.8398690 , "lon": 2.6321483 , "pop": 212 },
{ "nom": "Condat-en-Combraille" , "lat": 45.8523350 , "lon": 2.5627756 , "pop": 413 },
{ "nom": "Fernoël" , "lat": 45.8102391 , "lon": 2.4340296 , "pop": 137 },
{ "nom": "Giat" , "lat": 45.8019655 , "lon": 2.4681473 , "pop": 786 },
{ "nom": "Herment" , "lat": 45.7533144 , "lon": 2.5698137 , "pop": 277 },
{ "nom": "La Celle" , "lat": 45.8536866 , "lon": 2.4764299 , "pop": 81 },
{ "nom": "La Goutelle" , "lat": 45.8417591 , "lon": 2.7595425 , "pop": 609 },
{ "nom": "Landogne" , "lat": 45.8774741 , "lon": 2.6568890 , "pop": 228 },
{ "nom": "Lastic" , "lat": 45.7092492 , "lon": 2.5670671 , "pop": 98 },
{ "nom": "Messeix" , "lat": 45.6153714 , "lon": 2.5404596 , "pop": 998 },
{ "nom": "Miremont" , "lat": 45.8991394 , "lon": 2.7144599 , "pop": 300 },
{ "nom": "Montel-de-Gelat" , "lat": 45.9360711 , "lon": 2.5829029 , "pop": 406 },
{ "nom": "Montfermy" , "lat": 45.8800818 , "lon": 2.8096676 , "pop": 225 },
{ "nom": "Pontaumur" , "lat": 45.8671486 , "lon": 2.6725960 , "pop": 670 },
{ "nom": "Pontgibaud" , "lat": 45.8320549 , "lon": 2.8513813 , "pop": 715 },
{ "nom": "Prondines" , "lat": 45.7605005 , "lon": 2.6768875 , "pop": 272 },
{ "nom": "Pulvérières" , "lat": 45.8861510 , "lon": 2.9102612 , "pop": 419 },
{ "nom": "Puy-Saint-Gulmier" , "lat": 45.7909050 , "lon": 2.6274705 , "pop": 135 },
{ "nom": "Saint-Avit-d'Auvergne" , "lat": 45.8718270 , "lon": 2.5245380 , "pop": 208 },
{ "nom": "Saint-Étienne-des-Champs" , "lat": 45.8295534 , "lon": 2.5754571 , "pop": 125 },
{ "nom": "Saint-Germain-près-Herment" , "lat": 45.7346912 , "lon": 2.5392258 , "pop": 60 },
{ "nom": "Saint-Hilaire-les-Monges" , "lat": 45.8132136 , "lon": 2.6631546 , "pop": 83 },
{ "nom": "Saint-Jacques-d'Ambur" , "lat": 45.9022669 , "lon": 2.7766228 , "pop": 295 },
{ "nom": "Saint-Julien-Puy-Lavèze" , "lat": 45.6654323 , "lon": 2.6727676 , "pop": 360 },
{ "nom": "Saint-Ours" , "lat": 45.8495746 , "lon": 2.8924942 , "pop": 1708 },
{ "nom": "Saint-Pierre-le-Chastel" , "lat": 45.7987810 , "lon": 2.8430128 , "pop": 450 },
{ "nom": "Saint-Sulpice" , "lat": 45.6432212 , "lon": 2.6277494 , "pop": 85 },
{ "nom": "Sauvagnat" , "lat": 45.7697298 , "lon": 2.6174712 , "pop": 143 },
{ "nom": "Savennes" , "lat": 45.5897685 , "lon": 2.4951196 , "pop": 96 },
{ "nom": "Tortebesse" , "lat": 45.7308948 , "lon": 2.6522541 , "pop": 80 },
{ "nom": "Tralaigues" , "lat": 45.9002491 , "lon": 2.5928593 , "pop": 80 },
{ "nom": "Verneugheol" , "lat": 45.7679683 , "lon": 2.5352669 , "pop": 225 },
{ "nom": "Villossanges" , "lat": 45.9132558 , "lon": 2.6460314 , "pop": 359 },
{ "nom": "Voingt" , "lat": 45.8063437 , "lon": 2.5376487 , "pop": 58 },
{ "nom": "Avèze" , "lat": 45.5992920 , "lon": 2.5991678 , "pop": 158 },
{ "nom": "Bagnols" , "lat": 45.4990186 , "lon": 2.6318479 , "pop": 400 },
{ "nom": "Besse-et-Saint-Anastaise" , "lat": 45.5113910 , "lon": 2.9330921 , "pop": 1442 },
{ "nom": "Chambon-sur-Lac" , "lat": 45.5714546 , "lon": 2.8980732 , "pop": 407 },
{ "nom": "Champeix" , "lat": 45.5893481 , "lon": 3.1303310 , "pop": 1422 },
{ "nom": "Chastreix" , "lat": 45.5121128 , "lon": 2.7344370 , "pop": 226 },
{ "nom": "Clémensat" , "lat": 45.5631240 , "lon": 3.1049681 , "pop": 122 },
{ "nom": "Compains" , "lat": 45.4416263 , "lon": 2.9273629 , "pop": 125 },
{ "nom": "Courgoul" , "lat": 45.5135864 , "lon": 3.0384493 , "pop": 62 },
{ "nom": "Cros" , "lat": 45.4736251 , "lon": 2.6006055 , "pop": 171 },
{ "nom": "Égliseneuve-d'Entraigues" , "lat": 45.4077521 , "lon": 2.8271770 , "pop": 328 },
{ "nom": "Espinchal" , "lat": 45.3929484 , "lon": 2.8802204 , "pop": 72 },
{ "nom": "Grandeyrolles" , "lat": 45.5770979 , "lon": 3.0571604 , "pop": 55 },
{ "nom": "La Bourboule" , "lat": 45.5887390 , "lon": 2.7404022 , "pop": 1727 },
{ "nom": "La Tour-d'Auvergne" , "lat": 45.5321897 , "lon": 2.6890755 , "pop": 640 },
{ "nom": "Labessette" , "lat": 45.4897338 , "lon": 2.5372839 , "pop": 58 },
{ "nom": "Larodde" , "lat": 45.5254553 , "lon": 2.5506306 , "pop": 296 },
{ "nom": "Les Deux-Rives" , "lat": 45.5538306 , "lon": 3.1487846 , "pop": 825 },
{ "nom": "Ludesse" , "lat": 45.6118591 , "lon": 3.1114483 , "pop": 487 },
{ "nom": "Mont-Dore" , "lat": 45.5747422 , "lon": 2.8095818 , "pop": 1163 },
{ "nom": "Montaigut-le-Blanc" , "lat": 45.5853753 , "lon": 3.0906773 , "pop": 927 },
{ "nom": "Murat-le-Quaire" , "lat": 45.5974477 , "lon": 2.7338791 , "pop": 484 },
{ "nom": "Murol" , "lat": 45.5731200 , "lon": 2.9428768 , "pop": 672 },
{ "nom": "Picherande" , "lat": 45.4643362 , "lon": 2.7694988 , "pop": 324 },
{ "nom": "Saint-Diéry" , "lat": 45.5448146 , "lon": 3.0202103 , "pop": 546 },
{ "nom": "Saint-Donat" , "lat": 45.4690916 , "lon": 2.7184296 , "pop": 198 },
{ "nom": "Saint-Floret" , "lat": 45.5508531 , "lon": 3.1059337 , "pop": 243 },
{ "nom": "Saint-Genès-Champespe" , "lat": 45.4185716 , "lon": 2.7244592 , "pop": 200 },
{ "nom": "Saint-Nectaire" , "lat": 45.5874561 , "lon": 2.9914999 , "pop": 822 },
{ "nom": "Saint-Pierre-Colamine" , "lat": 45.5294840 , "lon": 2.9757500 , "pop": 247 },
{ "nom": "Saint-Sauves-d'Auvergne" , "lat": 45.6062751 , "lon": 2.6883888 , "pop": 1127 },
{ "nom": "Saint-Victor-la-Rivière" , "lat": 45.5505033 , "lon": 2.9399157 , "pop": 239 },
{ "nom": "Saint-Vincent" , "lat": 45.5507437 , "lon": 3.1056547 , "pop": 417 },
{ "nom": "Saurier" , "lat": 45.5374204 , "lon": 3.0460453 , "pop": 245 },
{ "nom": "Singles" , "lat": 45.5510936 , "lon": 2.5379705 , "pop": 171 },
{ "nom": "Solignat" , "lat": 45.5152150 , "lon": 3.1731606 , "pop": 510 },
{ "nom": "Tauves" , "lat": 45.5603212 , "lon": 2.6244450 , "pop": 684 },
{ "nom": "Tourzel-Ronzières" , "lat": 45.5272076 , "lon": 3.1306744 , "pop": 200 },
{ "nom": "Trémouille-Saint-Loup" , "lat": 45.4907610 , "lon": 2.5613379 , "pop": 140 },
{ "nom": "Valbeleix" , "lat": 45.4684638 , "lon": 2.9879808 , "pop": 149 },
{ "nom": "Verrières" , "lat": 45.5711800 , "lon": 3.0366039 , "pop": 74 },
{ "nom": "Vodable" , "lat": 45.5061664 , "lon": 3.1450081 , "pop": 194 },
{ "nom": "Arconsat" , "lat": 45.8881991 , "lon": 3.7136364 , "pop": 565 },
{ "nom": "Celles-sur-Durolle" , "lat": 45.8574227 , "lon": 3.6352730 , "pop": 1627 },
{ "nom": "Chabreloche" , "lat": 45.8779223 , "lon": 3.6968136 , "pop": 1556 },
{ "nom": "Dorat" , "lat": 45.8918433 , "lon": 3.4818935 , "pop": 719 },
{ "nom": "Escoutoux" , "lat": 45.8194517 , "lon": 3.5639477 , "pop": 1369 },
{ "nom": "La Monnerie-le-Montel" , "lat": 45.8699744 , "lon": 3.6030006 , "pop": 1647 },
{ "nom": "Palladuc" , "lat": 45.9043872 , "lon": 3.6278915 , "pop": 517 },
{ "nom": "Saint-Rémy-sur-Durolle" , "lat": 45.8880796 , "lon": 3.5929585 , "pop": 1746 },
{ "nom": "Saint-Victor-Montvianeix" , "lat": 45.9391834 , "lon": 3.6039877 , "pop": 264 },
{ "nom": "Sainte-Agathe" , "lat": 45.8216733 , "lon": 3.6124849 , "pop": 171 },
{ "nom": "Thiers" , "lat": 45.8506508 , "lon": 3.5396576 , "pop": 11637 },
{ "nom": "Viscomtat" , "lat": 45.8272872 , "lon": 3.6759567 , "pop": 501 },
{ "nom": "Vollore-Montagne" , "lat": 45.7849049 , "lon": 3.6745834 , "pop": 312 },
{ "nom": "Busséol" , "lat": 45.6915354 , "lon": 3.2543564 , "pop": 221 },
{ "nom": "Chadeleuf" , "lat": 45.5862162 , "lon": 3.1792545 , "pop": 427 },
{ "nom": "Coudes" , "lat": 45.6146594 , "lon": 3.2082224 , "pop": 1225 },
{ "nom": "La Roche-Noire" , "lat": 45.7081404 , "lon": 3.2244015 , "pop": 631 },
{ "nom": "Laps" , "lat": 45.6737945 , "lon": 3.2692051 , "pop": 601 },
{ "nom": "Manglieu" , "lat": 45.6111987 , "lon": 3.3517742 , "pop": 467 },
{ "nom": "Mirefleurs" , "lat": 45.6933172 , "lon": 3.2238007 , "pop": 2373 },
{ "nom": "Montpeyroux" , "lat": 45.6220050 , "lon": 3.2038879 , "pop": 330 },
{ "nom": "Neschers" , "lat": 45.5888591 , "lon": 3.1631184 , "pop": 908 },
{ "nom": "Parent" , "lat": 45.6233856 , "lon": 3.2298088 , "pop": 879 },
{ "nom": "Pérignat-sur-Allier" , "lat": 45.7287979 , "lon": 3.2327271 , "pop": 1506 },
{ "nom": "Pignols" , "lat": 45.6445113 , "lon": 3.2831955 , "pop": 337 },
{ "nom": "Plauzat" , "lat": 45.6208475 , "lon": 3.1499863 , "pop": 1641 },
{ "nom": "Saint-Georges-sur-Allier" , "lat": 45.7103580 , "lon": 3.2444000 , "pop": 1395 },
{ "nom": "Saint-Maurice" , "lat": 45.6706158 , "lon": 3.2381773 , "pop": 968 },
{ "nom": "Sallèdes" , "lat": 45.6500099 , "lon": 3.3284712 , "pop": 560 },
{ "nom": "Sauvagnat-Sainte-Marthe" , "lat": 45.5895799 , "lon": 3.2098103 , "pop": 460 },
{ "nom": "Vic-le-Comte" , "lat": 45.6427805 , "lon": 3.2447433 , "pop": 5396 },
{ "nom": "Yronde-et-Buron" , "lat": 45.6130430 , "lon": 3.2553864 , "pop": 642 }
]