[
{ "nom": "Anglet" , "lat": 43.4791744 , "lon": -1.5157993 , "pop": 43271 },
{ "nom": "Argagnon" , "lat": 43.4579423 , "lon": -0.6854057 , "pop": 690 },
{ "nom": "Arget" , "lat": 43.5431054 , "lon": -0.5284421 , "pop": 76 },
{ "nom": "Arnos" , "lat": 43.4569968 , "lon": -0.5325414 , "pop": 131 },
{ "nom": "Arthez-de-Béarn" , "lat": 43.4640635 , "lon": -0.6176015 , "pop": 1837 },
{ "nom": "Artix" , "lat": 43.3966326 , "lon": -0.5722550 , "pop": 3477 },
{ "nom": "Arzacq-Arraziguet" , "lat": 43.5362293 , "lon": -0.4098601 , "pop": 1077 },
{ "nom": "Aussevielle" , "lat": 43.3596276 , "lon": -0.4804385 , "pop": 864 },
{ "nom": "Balansun" , "lat": 43.4908145 , "lon": -0.6985561 , "pop": 316 },
{ "nom": "Beyrie-en-Béarn" , "lat": 43.3728271 , "lon": -0.4712539 , "pop": 197 },
{ "nom": "Bonnut" , "lat": 43.5479890 , "lon": -0.7640850 , "pop": 777 },
{ "nom": "Bougarber" , "lat": 43.3985700 , "lon": -0.4730590 , "pop": 889 },
{ "nom": "Bouillon" , "lat": 43.4941007 , "lon": -0.5012654 , "pop": 159 },
{ "nom": "Boumourt" , "lat": 43.4432022 , "lon": -0.5214348 , "pop": 151 },
{ "nom": "Cabidos" , "lat": 43.5412922 , "lon": -0.4638725 , "pop": 171 },
{ "nom": "Casteide-Cami" , "lat": 43.4237420 , "lon": -0.5200493 , "pop": 274 },
{ "nom": "Casteide-Candau" , "lat": 43.5144835 , "lon": -0.5617229 , "pop": 283 },
{ "nom": "Castétis" , "lat": 43.4684150 , "lon": -0.7124150 , "pop": 645 },
{ "nom": "Castillon-d'Arthez" , "lat": 43.4653240 , "lon": -0.5761560 , "pop": 332 },
{ "nom": "Cescau" , "lat": 43.4107153 , "lon": -0.4998535 , "pop": 630 },
{ "nom": "Coublucq" , "lat": 43.5314931 , "lon": -0.3640409 , "pop": 92 },
{ "nom": "Denguin" , "lat": 43.3624186 , "lon": -0.5073888 , "pop": 1765 },
{ "nom": "Doazon" , "lat": 43.4557365 , "lon": -0.5532608 , "pop": 187 },
{ "nom": "Fichous-Riumayou" , "lat": 43.4839057 , "lon": -0.4481177 , "pop": 207 },
{ "nom": "Garos" , "lat": 43.5066286 , "lon": -0.4725999 , "pop": 262 },
{ "nom": "Géus-d'Arzacq" , "lat": 43.4828660 , "lon": -0.5222928 , "pop": 234 },
{ "nom": "Hagetaubin" , "lat": 43.5191990 , "lon": -0.6244210 , "pop": 568 },
{ "nom": "Labastide-Cézéracq" , "lat": 43.3763913 , "lon": -0.5383767 , "pop": 584 },
{ "nom": "Labastide-Monréjeau" , "lat": 43.3919235 , "lon": -0.5210667 , "pop": 591 },
{ "nom": "Labeyrie" , "lat": 43.5415703 , "lon": -0.6213456 , "pop": 103 },
{ "nom": "Lacadée" , "lat": 43.5369670 , "lon": -0.6518747 , "pop": 145 },
{ "nom": "Lacq" , "lat": 43.4132490 , "lon": -0.6191400 , "pop": 1036 },
{ "nom": "Larreule" , "lat": 43.4775226 , "lon": -0.4726831 , "pop": 194 },
{ "nom": "Lonçon" , "lat": 43.4637380 , "lon": -0.4182340 , "pop": 221 },
{ "nom": "Louvigny" , "lat": 43.5113185 , "lon": -0.4438381 , "pop": 139 },
{ "nom": "Malaussanne" , "lat": 43.5589779 , "lon": -0.4718149 , "pop": 450 },
{ "nom": "Mazerolles" , "lat": 43.4487870 , "lon": -0.4712309 , "pop": 1194 },
{ "nom": "Méracq" , "lat": 43.5091080 , "lon": -0.3860090 , "pop": 234 },
{ "nom": "Mesplède" , "lat": 43.4936549 , "lon": -0.6600085 , "pop": 325 },
{ "nom": "Mialos" , "lat": 43.4943431 , "lon": -0.4088353 , "pop": 142 },
{ "nom": "Momas" , "lat": 43.4516175 , "lon": -0.4417699 , "pop": 604 },
{ "nom": "Mont" , "lat": 43.4344543 , "lon": -0.6530243 , "pop": 1146 },
{ "nom": "Montagut" , "lat": 43.5466398 , "lon": -0.5040328 , "pop": 116 },
{ "nom": "Morlanne" , "lat": 43.5129770 , "lon": -0.5338050 , "pop": 611 },
{ "nom": "Piets-Plasence-Moustrou" , "lat": 43.5241150 , "lon": -0.5031820 , "pop": 133 },
{ "nom": "Pomps" , "lat": 43.4929258 , "lon": -0.5399299 , "pop": 295 },
{ "nom": "Poursiugues-Boucoue" , "lat": 43.5503352 , "lon": -0.3762356 , "pop": 183 },
{ "nom": "Saint-Médard" , "lat": 43.5300409 , "lon": -0.5910356 , "pop": 206 },
{ "nom": "Sallespisse" , "lat": 43.5240150 , "lon": -0.7140470 , "pop": 591 },
{ "nom": "Sault-de-Navailles" , "lat": 43.5450581 , "lon": -0.6765880 , "pop": 976 },
{ "nom": "Séby" , "lat": 43.4861615 , "lon": -0.3938800 , "pop": 210 },
{ "nom": "Serres-Sainte-Marie" , "lat": 43.4144863 , "lon": -0.5528546 , "pop": 581 },
{ "nom": "Uzan" , "lat": 43.4797401 , "lon": -0.5050493 , "pop": 165 },
{ "nom": "Viellenave-d'Arthez" , "lat": 43.4095343 , "lon": -0.4804110 , "pop": 233 },
{ "nom": "Vignes" , "lat": 43.5266219 , "lon": -0.4118434 , "pop": 463 },
{ "nom": "Cambo-les-Bains" , "lat": 43.3603321 , "lon": -1.3994425 , "pop": 6760 },
{ "nom": "Espelette" , "lat": 43.3411775 , "lon": -1.4493722 , "pop": 2155 },
{ "nom": "Halsou" , "lat": 43.3745667 , "lon": -1.4237106 , "pop": 589 },
{ "nom": "Hasparren" , "lat": 43.3839520 , "lon": -1.3052500 , "pop": 7626 },
{ "nom": "Itxassou" , "lat": 43.3298450 , "lon": -1.4063470 , "pop": 2248 },
{ "nom": "Jatxou" , "lat": 43.3881620 , "lon": -1.4305020 , "pop": 1267 },
{ "nom": "Larressore" , "lat": 43.3721900 , "lon": -1.4359500 , "pop": 2163 },
{ "nom": "Louhossoa" , "lat": 43.3161920 , "lon": -1.3505090 , "pop": 886 },
{ "nom": "Macaye" , "lat": 43.3307501 , "lon":  -1.3214922, "pop": 593 },
{ "nom": "Souraïde" , "lat": 43.3412300 , "lon": -1.4735890 , "pop": 1472 },
{ "nom": "Bayonne" , "lat": 43.4933798 , "lon": -1.4757394 , "pop": 54306 },
{ "nom": "Boucau" , "lat": 43.5228145 , "lon":  -1.4843797, "pop": 8968 },
{ "nom": "Biarritz" , "lat": 43.4816101 , "lon": -1.5581085 , "pop": 26206 },
{ "nom": "Aubertin" , "lat": 43.2747774 , "lon": -0.4834754 , "pop": 671 },
{ "nom": "Billère" , "lat": 43.3019655 , "lon": -0.3979346 , "pop": 14384 },
{ "nom": "Jurançon" , "lat": 43.2877213 , "lon": -0.3908116 , "pop": 7040 },
{ "nom": "Laroin" , "lat": 43.3053168 , "lon": -0.4465530 , "pop": 1030 },
{ "nom": "Saint-Faust" , "lat": 43.2709939 , "lon": -0.4515480 , "pop": 738 },
{ "nom": "Abidos" , "lat": 43.3987679 , "lon": -0.6238440 , "pop": 222 },
{ "nom": "Abos" , "lat": 43.3583000 , "lon": -0.5634000 , "pop": 526 },
{ "nom": "Angous" , "lat": 43.2927580 , "lon": -0.8139020 , "pop": 96 },
{ "nom": "Araujuzon" , "lat": 43.3602599 , "lon": -0.8189090 , "pop": 189 },
{ "nom": "Araux" , "lat": 43.3517660 , "lon": -0.8076700 , "pop": 136 },
{ "nom": "Audaux" , "lat": 43.3584507 , "lon": -0.7926159 , "pop": 171 },
{ "nom": "Bastanès" , "lat": 43.3472290 , "lon": -0.7699865 , "pop": 96 },
{ "nom": "Bésingrand" , "lat": 43.3716221 , "lon": -0.5685396 , "pop": 146 },
{ "nom": "Biron" , "lat": 43.4639468 , "lon": -0.7403170 , "pop": 595 },
{ "nom": "Bugnein" , "lat": 43.3526480 , "lon": -0.7829100 , "pop": 218 },
{ "nom": "Cardesse" , "lat": 43.2620767 , "lon": -0.5878988 , "pop": 293 },
{ "nom": "Castetnau-Camblong" , "lat": 43.3253276 , "lon": -0.7820208 , "pop": 460 },
{ "nom": "Castetner" , "lat": 43.4427467 , "lon": -0.7462953 , "pop": 140 },
{ "nom": "Charre" , "lat": 43.3165565 , "lon": -0.8670198 , "pop": 222 },
{ "nom": "Cuqueron" , "lat": 43.3182706 , "lon": -0.5516356 , "pop": 189 },
{ "nom": "Dognen" , "lat": 43.2906385 , "lon": -0.7427923 , "pop": 225 },
{ "nom": "Gestas" , "lat": 43.3512174 , "lon": -0.8816770 , "pop": 74 },
{ "nom": "Gurs" , "lat": 43.2877588 , "lon": -0.7543919 , "pop": 418 },
{ "nom": "Jasses" , "lat": 43.3114383 , "lon": -0.7469634 , "pop": 142 },
{ "nom": "Laà-Mondrans" , "lat": 43.4522764 , "lon": -0.7736521 , "pop": 423 },
{ "nom": "Lacommande" , "lat": 43.2776423 , "lon": -0.5077417 , "pop": 172 },
{ "nom": "Lagor" , "lat": 43.3923650 , "lon": -0.6521340 , "pop": 1121 },
{ "nom": "Lahourcade" , "lat": 43.3541595 , "lon": -0.6173107 , "pop": 709 },
{ "nom": "Lay-Lamidou" , "lat": 43.2906918 , "lon": -0.7216468 , "pop": 130 },
{ "nom": "Loubieng" , "lat": 43.4314444 , "lon": -0.7586206 , "pop": 491 },
{ "nom": "Lucq-de-Béarn" , "lat": 43.2874151 , "lon": -0.6588707 , "pop": 925 },
{ "nom": "Maslacq" , "lat": 43.4401700 , "lon": -0.6947550 , "pop": 891 },
{ "nom": "Méritein" , "lat": 43.3352120 , "lon": -0.7638890 , "pop": 279 },
{ "nom": "Monein" , "lat": 43.3201230 , "lon": -0.5796090 , "pop": 4446 },
{ "nom": "Mourenx" , "lat": 43.3706126 , "lon": -0.6306248 , "pop": 5695 },
{ "nom": "Nabas" , "lat": 43.3322140 , "lon": -0.8743950 , "pop": 81 },
{ "nom": "Navarrenx" , "lat": 43.3222550 , "lon": -0.7610080 , "pop": 1042 },
{ "nom": "Noguères" , "lat": 43.3718120 , "lon": -0.5947400 , "pop": 121 },
{ "nom": "Ogenne-Camptort" , "lat": 43.3172274 , "lon": -0.7077316 , "pop": 241 },
{ "nom": "Os-Marsillon" , "lat": 43.3887850 , "lon": -0.6161661 , "pop": 547 },
{ "nom": "Ozenx-Montestrucq" , "lat": 43.4332198 , "lon": -0.8116789 , "pop": 372 },
{ "nom": "Parbayse" , "lat": 43.3257972 , "lon": -0.5437824 , "pop": 316 },
{ "nom": "Pardies" , "lat": 43.3677900 , "lon": -0.5862270 , "pop": 930 },
{ "nom": "Préchacq-Navarrenx" , "lat": 43.2768278 , "lon": -0.7162077 , "pop": 178 },
{ "nom": "Rivehaute" , "lat": 43.3434378 , "lon": -0.8793055 , "pop": 271 },
{ "nom": "Sarpourenx" , "lat": 43.4573810 , "lon": -0.7133340 , "pop": 285 },
{ "nom": "Sauvelade" , "lat": 43.3914725 , "lon": -0.7073243 , "pop": 273 },
{ "nom": "Sus" , "lat": 43.3061162 , "lon": -0.7666983 , "pop": 371 },
{ "nom": "Susmiou" , "lat": 43.3158500 , "lon": -0.7772640 , "pop": 348 },
{ "nom": "Tarsacq" , "lat": 43.3544325 , "lon": -0.5303073 , "pop": 548 },
{ "nom": "Viellenave-de-Navarrenx" , "lat": 43.3482549 , "lon": -0.7927970 , "pop": 158 },
{ "nom": "Vielleségure" , "lat": 43.3567400 , "lon": -0.6838720 , "pop": 376 },
{ "nom": "Biriatou" , "lat": 43.3340351 , "lon": -1.7429380 , "pop": 1297 },
{ "nom": "Hendaye" , "lat": 43.3590836 , "lon": -1.7664524 , "pop": 18102 },
{ "nom": "Urrugne" , "lat": 43.3617198 , "lon": -1.6999270 , "pop": 10661 },
{ "nom": "Arbus" , "lat": 43.3304938 , "lon": -0.5043053 , "pop": 1226 },
{ "nom": "Artiguelouve" , "lat": 43.3165296 , "lon": -0.4761548 , "pop": 2045 },
{ "nom": "Lescar" , "lat": 43.3325140 , "lon": -0.4341473 , "pop": 9455 },
{ "nom": "Lons" , "lat": 43.3148659 , "lon": -0.4109520 , "pop": 13606 },
{ "nom": "Poey-de-Lescar" , "lat": 43.3507145 , "lon": -0.4705590 , "pop": 1876 },
{ "nom": "Siros" , "lat": 43.3435538 , "lon": -0.4819486 , "pop": 848 },
{ "nom": "Uzein" , "lat": 43.3990297 , "lon": -0.4337368 , "pop": 1326 },
{ "nom": "Ahaxe-Alciette-Bascassan" , "lat": 43.1504975 , "lon": -1.1649421 , "pop": 261 },
{ "nom": "Aincille" , "lat": 43.1436953 , "lon": -1.1955176 , "pop": 117 },
{ "nom": "Ainharp" , "lat": 43.2602975 , "lon": -0.9307904 , "pop": 131 },
{ "nom": "Ainhice-Mongelos" , "lat": 43.1988131 , "lon": -1.1534900 , "pop": 168 },
{ "nom": "Alçay-Alçabéhéty-Sunharette" , "lat": 43.0942828 , "lon": -0.9102345 , "pop": 206 },
{ "nom": "Aldudes" , "lat": 43.0948651 , "lon": -1.4251999 , "pop": 332 },
{ "nom": "Alos-Sibas-Abense" , "lat": 43.1185459 , "lon": -0.8755281 , "pop": 291 },
{ "nom": "Anhaux" , "lat": 43.1694467 , "lon": -1.2907156 , "pop": 389 },
{ "nom": "Arnéguy" , "lat": 43.1087390 , "lon": -1.2820140 , "pop": 237 },
{ "nom": "Arrast-Larrebieu" , "lat": 43.2933648 , "lon": -0.8498690 , "pop": 96 },
{ "nom": "Ascarat" , "lat": 43.1702070 , "lon": -1.2556800 , "pop": 348 },
{ "nom": "Aussurucq" , "lat": 43.1494630 , "lon": -0.9336400 , "pop": 230 },
{ "nom": "Banca" , "lat": 43.1263840 , "lon": -1.3739040 , "pop": 358 },
{ "nom": "Barcus" , "lat": 43.1878429 , "lon": -0.7720478 , "pop": 654 },
{ "nom": "Béhorléguy" , "lat": 43.1287422 , "lon": -1.1184745 , "pop": 66 },
{ "nom": "Berrogain-Laruns" , "lat": 43.2445150 , "lon": -0.8644438 , "pop": 160 },
{ "nom": "Bidarray" , "lat": 43.2664837 , "lon": -1.3448382 , "pop": 693 },
{ "nom": "Bussunarits-Sarrasquette" , "lat": 43.1666245 , "lon": -1.1721603 , "pop": 210 },
{ "nom": "Bustince-Iriberry" , "lat": 43.1881924 , "lon": -1.1799682 , "pop": 102 },
{ "nom": "Camou-Cihigue" , "lat": 43.1160731 , "lon": -0.9063250 , "pop": 107 },
{ "nom": "Caro" , "lat": 43.1476520 , "lon": -1.2175940 , "pop": 170 },
{ "nom": "Charritte-de-Bas" , "lat": 43.2935690 , "lon": -0.8820934 , "pop": 242 },
{ "nom": "Chéraute" , "lat": 43.2304049 , "lon": -0.8699429 , "pop": 1043 },
{ "nom": "Espès-Undurein" , "lat": 43.2675999 , "lon": -0.8862162 , "pop": 506 },
{ "nom": "Estérençuby" , "lat": 43.1033637 , "lon": -1.1957395 , "pop": 303 },
{ "nom": "Etchebar" , "lat": 43.0828217 , "lon": -0.8926986 , "pop": 75 },
{ "nom": "Gamarthe" , "lat": 43.2015392 , "lon": -1.1428665 , "pop": 125 },
{ "nom": "Garindein" , "lat": 43.2087330 , "lon": -0.9060580 , "pop": 457 },
{ "nom": "Gotein-Libarrenx" , "lat": 43.1897653 , "lon": -0.9015843 , "pop": 479 },
{ "nom": "Haux" , "lat": 43.0784527 , "lon": -0.8481776 , "pop": 84 },
{ "nom": "Idaux-Mendy" , "lat": 43.1801825 , "lon": -0.9160163 , "pop": 267 },
{ "nom": "Irouléguy" , "lat": 43.1779227 , "lon": -1.3003502 , "pop": 364 },
{ "nom": "Ispoure" , "lat": 43.1709380 , "lon": -1.2345650 , "pop": 667 },
{ "nom": "Jaxu" , "lat": 43.1966417 , "lon": -1.1921618 , "pop": 206 },
{ "nom": "L'Hôpital-Saint-Blaise" , "lat": 43.2515710 , "lon": -0.7681035 , "pop": 55 },
{ "nom": "Lacarre" , "lat": 43.1900998 , "lon": -1.1661122 , "pop": 171 },
{ "nom": "Lacarry-Arhan-Charritte-de-Haut" , "lat": 43.0853540 , "lon": -0.9243670 , "pop": 109 },
{ "nom": "Laguinge-Restoue" , "lat": 43.0930621 , "lon": -0.8661309 , "pop": 155 },
{ "nom": "Larrau" , "lat": 43.0180510 , "lon": -0.9549204 , "pop": 179 },
{ "nom": "Lasse" , "lat": 43.1569660 , "lon": -1.2602950 , "pop": 334 },
{ "nom": "Lecumberry" , "lat": 43.1346026 , "lon": -1.1434554 , "pop": 196 },
{ "nom": "Lichans-Sunhar" , "lat": 43.0929605 , "lon": -0.8745062 , "pop": 84 },
{ "nom": "Lichos" , "lat": 43.3055445 , "lon": -0.8786070 , "pop": 127 },
{ "nom": "Licq-Athérey" , "lat": 43.0666054 , "lon": -0.8790200 , "pop": 194 },
{ "nom": "Mauléon-Licharre" , "lat": 43.2222825 , "lon": -0.8896875 , "pop": 2972 },
{ "nom": "Menditte" , "lat": 43.1617540 , "lon": -0.9019950 , "pop": 208 },
{ "nom": "Mendive" , "lat": 43.1330550 , "lon": -1.1316070 , "pop": 172 },
{ "nom": "Moncayolle-Larrory-Mendibieu" , "lat": 43.2640220 , "lon": -0.8497051 , "pop": 284 },
{ "nom": "Montory" , "lat": 43.0971173  , "lon": -0.8173922 , "pop": 318 },
{ "nom": "Musculdy" , "lat": 43.1970141 , "lon": -0.9660076 , "pop": 220 },
{ "nom": "Ordiarp" , "lat": 43.1863391 , "lon": -0.9444871 , "pop": 547 },
{ "nom": "Ossas-Suhare" , "lat": 43.1401835 , "lon": -0.8908651 , "pop": 91 },
{ "nom": "Ossès" , "lat": 43.2418265 , "lon": -1.2852502 , "pop": 878 },
{ "nom": "Roquiague" , "lat": 43.1906469 , "lon": -0.8399474 , "pop": 121 },
{ "nom": "Saint-Étienne-de-Baïgorry" , "lat": 43.1754584 , "lon": -1.3455018 , "pop": 1527 },
{ "nom": "Saint-Jean-le-Vieux" , "lat": 43.1652860 , "lon": -1.1942210 , "pop": 900 },
{ "nom": "Saint-Jean-Pied-de-Port" , "lat": 43.1627272 , "lon": -1.2388808 , "pop": 1479 },
{ "nom": "Saint-Martin-d'Arrossa" , "lat": 43.2377778 , "lon": -1.3129153 , "pop": 543 },
{ "nom": "Saint-Michel" , "lat": 43.1362380 , "lon": -1.2208429 , "pop": 290 },
{ "nom": "Sainte-Engrâce" , "lat": 42.9972327 , "lon": -0.8235895 , "pop": 169 },
{ "nom": "Sauguis-Saint-Étienne" , "lat": 43.1516455 , "lon": -0.8881107 , "pop": 172 },
{ "nom": "Tardets-Sorholus" , "lat": 43.1173170 , "lon": -0.8641830 , "pop": 589 },
{ "nom": "Trois-Villes" , "lat": 43.1322360 , "lon": -0.8768098 , "pop": 148 },
{ "nom": "Uhart-Cize" , "lat": 43.1641350 , "lon": -1.2438980 , "pop": 816 },
{ "nom": "Urepel" , "lat": 43.0695810 , "lon": -1.4163940 , "pop": 271 },
{ "nom": "Viodos-Abense-de-Bas" , "lat": 43.2418070 , "lon": -0.8815790 , "pop": 747 },
{ "nom": "Bardos" , "lat": 43.4754549 , "lon": -1.2033300 , "pop": 1905 },
{ "nom": "Briscous" , "lat": 43.4595379 , "lon": -1.3338840 , "pop": 2965 },
{ "nom": "Guiche" , "lat": 43.5112620 , "lon": -1.2046580 , "pop": 1075 },
{ "nom": "Lahonce" , "lat": 43.4840917 , "lon": -1.3910141 , "pop": 2740 },
{ "nom": "Mouguerre" , "lat": 43.4658464 , "lon": -1.4151127 , "pop": 5428 },
{ "nom": "Saint-Pierre-d'Irube" , "lat": 43.4781483 , "lon": -1.4597447 , "pop": 5900 },
{ "nom": "Sames" , "lat": 43.5229346 , "lon": -1.1597464 , "pop": 709 },
{ "nom": "Urcuit" , "lat": 43.4869977 , "lon": -1.3487367 , "pop": 3047 },
{ "nom": "Urt" , "lat": 43.4935900 , "lon": -1.2894830 , "pop": 2346 },
{ "nom": "Villefranque" , "lat": 43.4367710 , "lon": -1.4523330 , "pop": 3069 },
{ "nom": "Accous" , "lat": 42.9740998 , "lon": -0.6002456 , "pop": 471 },
{ "nom": "Agnos" , "lat": 43.1633510 , "lon": -0.6205910 , "pop": 1044 },
{ "nom": "Ance Féas" , "lat": 43.1553992 , "lon": -0.6878187 , "pop": 624 },
{ "nom": "Aramits" , "lat": 43.1221648 , "lon": -0.7265945 , "pop": 659 },
{ "nom": "Aren" , "lat": 43.2594939 , "lon": -0.6897670 , "pop": 246 },
{ "nom": "Arette" , "lat": 43.0946599 , "lon": -0.7167459 , "pop": 1032 },
{ "nom": "Asasp-Arros" , "lat": 43.1235084 , "lon": -0.6135178 , "pop": 516 },
{ "nom": "Aydius" , "lat": 43.0013969 , "lon": -0.5417663 , "pop": 102 },
{ "nom": "Bedous" , "lat": 42.9996174 , "lon": -0.6011192 , "pop": 568 },
{ "nom": "Bidos" , "lat": 43.1772510 , "lon": -0.6065400 , "pop": 1102 },
{ "nom": "Borce" , "lat": 42.9091700 , "lon": -0.5727850 , "pop": 112 },
{ "nom": "Cette-Eygun" , "lat": 42.9366225 , "lon": -0.5884757 , "pop": 66 },
{ "nom": "Escot" , "lat": 43.0773539 , "lon": -0.6069863 , "pop": 118 },
{ "nom": "Esquiule" , "lat": 43.1940950 , "lon": -0.7082230 , "pop": 522 },
{ "nom": "Etsaut" , "lat": 42.9126908 , "lon": -0.5711366 , "pop": 74 },
{ "nom": "Eysus" , "lat": 43.1391570 , "lon": -0.5880790 , "pop": 625 },
{ "nom": "Géronce" , "lat": 43.2378066 , "lon": -0.6895980 , "pop": 492 },
{ "nom": "Geüs-d'Oloron" , "lat": 43.2511800 , "lon": -0.7056908 , "pop": 261 },
{ "nom": "Gurmençon" , "lat": 43.1550545 , "lon": -0.5953833 , "pop": 867 },
{ "nom": "Issor" , "lat": 43.1013180 , "lon": -0.6609110 , "pop": 256 },
{ "nom": "Lanne-en-Barétous" , "lat": 43.1122563 , "lon": -0.7599695 , "pop": 481 },
{ "nom": "Lées-Athas" , "lat": 42.9743064 , "lon": -0.6203243 , "pop": 229 },
{ "nom": "Lescun" , "lat": 42.9338421 , "lon": -0.6348864 , "pop": 163 },
{ "nom": "Lourdios-Ichère" , "lat": 43.0486802 , "lon": -0.6657123 , "pop": 145 },
{ "nom": "Lurbe-Saint-Christau" , "lat": 43.1120964 , "lon": -0.6084012 , "pop": 207 },
{ "nom": "Moumour" , "lat": 43.2133510 , "lon": -0.6543280 , "pop": 814 },
{ "nom": "Orin" , "lat": 43.2323180 , "lon": -0.6728650 , "pop": 269 },
{ "nom": "Osse-en-Aspe" , "lat": 42.9951450 , "lon": -0.6169120 , "pop": 330 },
{ "nom": "Préchacq-Josbaig" , "lat": 43.2645180 , "lon": -0.7127830 , "pop": 299 },
{ "nom": "Saint-Goin" , "lat": 43.2469020 , "lon": -0.7011320 , "pop": 219 },
{ "nom": "Sarrance" , "lat": 43.0507024 , "lon": -0.6019957 , "pop": 152 },
{ "nom": "Urdos" , "lat": 42.8725228 , "lon": -0.5544509 , "pop": 71 },
{ "nom": "Arudy" , "lat": 43.1056460 , "lon": -0.4281276 , "pop": 2228 },
{ "nom": "Aste-Béon" , "lat": 43.0223702 , "lon": -0.4134154 , "pop": 231 },
{ "nom": "Béost" , "lat": 42.9932574 , "lon": -0.4142499 , "pop": 231 },
{ "nom": "Bescat" , "lat": 43.1245042 , "lon": -0.4271454 , "pop": 255 },
{ "nom": "Bielle" , "lat": 43.0539290 , "lon": -0.4338410 , "pop": 371 },
{ "nom": "Bilhères" , "lat": 43.0576293 , "lon": -0.4496056 , "pop": 154 },
{ "nom": "Buziet" , "lat": 43.1382011 , "lon": -0.4758937 , "pop": 479 },
{ "nom": "Buzy" , "lat": 43.1334618 , "lon": -0.4576400 , "pop": 1006 },
{ "nom": "Castet" , "lat": 43.0698547 , "lon": -0.4168944 , "pop": 136 },
{ "nom": "Eaux-Bonnes" , "lat": 42.9727547 , "lon": -0.3920869 , "pop": 215 },
{ "nom": "Escou" , "lat": 43.1822916 , "lon": -0.5371058 , "pop": 429 },
{ "nom": "Escout" , "lat": 43.1847054 , "lon": -0.5531498 , "pop": 423 },
{ "nom": "Estialescq" , "lat": 43.2185633 , "lon": -0.5507113 , "pop": 257 },
{ "nom": "Estos" , "lat": 43.2094684 , "lon": -0.6094556 , "pop": 481 },
{ "nom": "Gère-Bélesten" , "lat": 43.0251205 , "lon": -0.4269172 , "pop": 189 },
{ "nom": "Goès" , "lat": 43.1984074 , "lon": -0.5934564 , "pop": 520 },
{ "nom": "Herrère" , "lat": 43.1682000 , "lon": -0.5363076 , "pop": 397 },
{ "nom": "Izeste" , "lat": 43.0910385 , "lon": -0.4258470 , "pop": 442 },
{ "nom": "Laruns" , "lat": 42.9881540 , "lon": -0.4263769 , "pop": 1177 },
{ "nom": "Lasseube" , "lat": 43.2210705 , "lon": -0.4778978 , "pop": 1735 },
{ "nom": "Lasseubetat" , "lat": 43.1709759 , "lon": -0.4580322 , "pop": 188 },
{ "nom": "Ledeuix" , "lat": 43.2165200 , "lon": -0.6204269 , "pop": 1029 },
{ "nom": "Louvie-Juzon" , "lat": 43.0862670 , "lon": -0.4195773 , "pop": 1058 },
{ "nom": "Louvie-Soubiron" , "lat": 42.9991067 , "lon": -0.4141904 , "pop": 133 },
{ "nom": "Lys" , "lat": 43.1303289 , "lon": -0.3527886 , "pop": 322 },
{ "nom": "Ogeu-les-Bains" , "lat": 43.1472958 , "lon": -0.5039329 , "pop": 1290 },
{ "nom": "Oloron-Sainte-Marie" , "lat": 43.1938833 , "lon": -0.6080732 , "pop": 10684 },
{ "nom": "Poey-d'Oloron" , "lat": 43.2459802 , "lon": -0.6619353 , "pop": 163 },
{ "nom": "Précilhon" , "lat": 43.1950660 , "lon": -0.5817856 , "pop": 409 },
{ "nom": "Rébénacq" , "lat": 43.1598029 , "lon": -0.3963190 , "pop": 639 },
{ "nom": "Sainte-Colome" , "lat": 43.1021567 , "lon": -0.4028664 , "pop": 354 },
{ "nom": "Saucède" , "lat": 43.2690089 , "lon": -0.6861960 , "pop": 125 },
{ "nom": "Sévignacq-Meyracq" , "lat": 43.1131873 , "lon": -0.4113353 , "pop": 577 },
{ "nom": "Verdets" , "lat": 43.2265870 , "lon": -0.6433250 , "pop": 300 },
{ "nom": "Abitain" , "lat": 43.4205744 , "lon": -0.9892768 , "pop": 120 },
{ "nom": "Andrein" , "lat": 43.3920624 , "lon": -0.8999337 , "pop": 136 },
{ "nom": "Athos-Aspis" , "lat": 43.4144830 , "lon": -0.9742068 , "pop": 213 },
{ "nom": "Auterrive" , "lat": 43.4661303 , "lon": -0.9999551 , "pop": 143 },
{ "nom": "Autevielle-Saint-Martin-Bideren" , "lat": 43.3909150 , "lon": -0.9707974 , "pop": 219 },
{ "nom": "Baigts-de-Béarn" , "lat": 43.5124629 , "lon": -0.8391510 , "pop": 855 },
{ "nom": "Barraute-Camu" , "lat": 43.3871628 , "lon": -0.8983136 , "pop": 187 },
{ "nom": "Bellocq" , "lat": 43.5173090 , "lon": -0.9180300 , "pop": 933 },
{ "nom": "Bérenx" , "lat": 43.5028340 , "lon": -0.8582380 , "pop": 428 },
{ "nom": "Burgaronne" , "lat": 43.4121390 , "lon": -0.9089620 , "pop": 98 },
{ "nom": "Carresse-Cassaber" , "lat": 43.4918681 , "lon": -1.0118504 , "pop": 664 },
{ "nom": "Castagnède" , "lat": 43.4538225 , "lon": -0.9938888 , "pop": 207 },
{ "nom": "Castetbon" , "lat": 43.3853900 , "lon": -0.7897860 , "pop": 151 },
{ "nom": "Escos" , "lat": 43.4469843 , "lon": -0.9986410 , "pop": 237 },
{ "nom": "Espiute" , "lat": 43.3586217 , "lon": -0.9166968 , "pop": 113 },
{ "nom": "Guinarthe-Parenties" , "lat": 43.3827779 , "lon": -0.9490391 , "pop": 227 },
{ "nom": "L'Hôpital-d'Orion" , "lat": 43.4369624 , "lon": -0.8480126 , "pop": 136 },
{ "nom": "Laàs" , "lat": 43.3817087 , "lon": -0.8510614 , "pop": 140 },
{ "nom": "Labastide-Villefranche" , "lat": 43.4526560 , "lon": -1.0206930 , "pop": 343 },
{ "nom": "Lahontan" , "lat": 43.5301438 , "lon": -0.9687578 , "pop": 536 },
{ "nom": "Lanneplaà" , "lat": 43.4613212 , "lon": -0.8208436 , "pop": 301 },
{ "nom": "Léren" , "lat": 43.5011981 , "lon": -1.0451424 , "pop": 210 },
{ "nom": "Montfort" , "lat": 43.3676576 , "lon": -0.8473964 , "pop": 196 },
{ "nom": "Narp" , "lat": 43.3744122 , "lon": -0.8303757 , "pop": 122 },
{ "nom": "Oraàs" , "lat": 43.4378035 , "lon": -0.9869880 , "pop": 184 },
{ "nom": "Orion" , "lat": 43.4188047 , "lon": -0.8624604 , "pop": 148 },
{ "nom": "Orriule" , "lat": 43.4062670 , "lon": -0.8526170 , "pop": 140 },
{ "nom": "Orthez" , "lat": 43.4875032 , "lon": -0.7734295 , "pop": 10881 },
{ "nom": "Ossenx" , "lat": 43.3712207 , "lon": -0.8164176 , "pop": 51 },
{ "nom": "Puyoô" , "lat": 43.5251698 , "lon": -0.9117666 , "pop": 1077 },
{ "nom": "Ramous" , "lat": 43.5210308 , "lon": -0.8964064 , "pop": 470 },
{ "nom": "Saint-Boès" , "lat": 43.5272574 , "lon": -0.8059515 , "pop": 376 },
{ "nom": "Saint-Dos" , "lat": 43.4734679 , "lon": -1.0233480 , "pop": 160 },
{ "nom": "Saint-Girons-en-Béarn" , "lat": 43.5529074 , "lon": -0.8308791 , "pop": 186 },
{ "nom": "Saint-Gladie-Arrive-Munein" , "lat": 43.3801890 , "lon": -0.9339109 , "pop": 193 },
{ "nom": "Saint-Pé-de-Léren" , "lat": 43.4934483 , "lon": -1.0370405 , "pop": 271 },
{ "nom": "Salies-de-Béarn" , "lat": 43.4705560 , "lon": -0.9248540 , "pop": 4742 },
{ "nom": "Salles-Mongiscard" , "lat": 43.4935887 , "lon": -0.8374082 , "pop": 315 },
{ "nom": "Sauveterre-de-Béarn" , "lat": 43.3991711 , "lon": -0.9389886 , "pop": 1375 },
{ "nom": "Tabaille-Usquain" , "lat": 43.3617947 , "lon": -0.8817580 , "pop": 47 },
{ "nom": "Aressy" , "lat": 43.2792637 , "lon": -0.3280517 , "pop": 881 },
{ "nom": "Arros-de-Nay" , "lat": 43.2001970 , "lon": -0.2881820 , "pop": 820 },
{ "nom": "Arthez-d'Asson" , "lat": 43.0886005 , "lon": -0.2518485 , "pop": 457 },
{ "nom": "Assat" , "lat": 43.2516740 , "lon": -0.2999569 , "pop": 2068 },
{ "nom": "Asson" , "lat": 43.1427064 , "lon": -0.2571487 , "pop": 1982 },
{ "nom": "Baliros" , "lat": 43.2318340 , "lon": -0.3075699 , "pop": 515 },
{ "nom": "Bosdarros" , "lat": 43.2099190 , "lon": -0.3620380 , "pop": 962 },
{ "nom": "Bourdettes" , "lat": 43.1961560 , "lon": -0.2750810 , "pop": 503 },
{ "nom": "Bruges-Capbis-Mifaget" , "lat": 43.1268598 , "lon": -0.3038406 , "pop": 847 },
{ "nom": "Gan" , "lat": 43.2261289 , "lon": -0.3895248 , "pop": 5676 },
{ "nom": "Haut-de-Bosdarros" , "lat": 43.1711462 , "lon": -0.3316328 , "pop": 322 },
{ "nom": "Meillon" , "lat": 43.2646250 , "lon": -0.3136040 , "pop": 957 },
{ "nom": "Narcastet" , "lat": 43.2506350 , "lon": -0.3198820 , "pop": 753 },
{ "nom": "Nay" , "lat": 43.1781897 , "lon": -0.2597711 , "pop": 3184 },
{ "nom": "Pardies-Piétat" , "lat": 43.2140070 , "lon": -0.3002320 , "pop": 434 },
{ "nom": "Rontignon" , "lat": 43.2614241 , "lon": -0.3299874 , "pop": 875 },
{ "nom": "Saint-Abit" , "lat": 43.2047229 , "lon": -0.2938049 , "pop": 294 },
{ "nom": "Uzos" , "lat": 43.2690268 , "lon": -0.3416773 , "pop": 874 },
{ "nom": "Idron" , "lat": 43.2960434 , "lon": -0.3064408 , "pop": 5340 },
{ "nom": "Bizanos" , "lat": 43.2889310 , "lon": -0.3552260 , "pop": 4592 },
{ "nom": "Mazères-Lezons" , "lat": 43.2763050 , "lon": -0.3548239 , "pop": 1845 },
{ "nom": "Gelos" , "lat": 43.2855980 , "lon": -0.3726547 , "pop": 3637 },
{ "nom": "Pau" , "lat": 43.2943134 , "lon": -0.3704231 , "pop": 80441 },
{ "nom": "Aïcirits-Camou-Suhast" , "lat": 43.3382537 , "lon": -1.0230679 , "pop": 699 },
{ "nom": "Amendeuix-Oneix" , "lat": 43.3535659 , "lon": -1.0439810 , "pop": 472 },
{ "nom": "Amorots-Succos" , "lat": 43.3662216 , "lon": -1.1116309 , "pop": 219 },
{ "nom": "Arancou" , "lat": 43.4430027 , "lon": -1.0501611 , "pop": 187 },
{ "nom": "Arbérats-Sillègue" , "lat": 43.3412478 , "lon": -0.9976075 , "pop": 329 },
{ "nom": "Arbouet-Sussaute" , "lat": 43.3699663 , "lon": -1.0006249 , "pop": 313 },
{ "nom": "Arhansus" , "lat": 43.2572210 , "lon": -1.0359169 , "pop": 66 },
{ "nom": "Armendarits" , "lat": 43.3016750 , "lon": -1.1725070 , "pop": 398 },
{ "nom": "Aroue-Ithorots-Olhaïby" , "lat": 43.3173596 , "lon": -0.9179043 , "pop": 240 },
{ "nom": "Arraute-Charritte" , "lat": 43.3978678 , "lon": -1.1061583 , "pop": 440 },
{ "nom": "Ayherre" , "lat": 43.3921120 , "lon": -1.2535030 , "pop": 1128 },
{ "nom": "Béguios" , "lat": 43.3591580 , "lon": -1.0863179 , "pop": 259 },
{ "nom": "Béhasque-Lapiste" , "lat": 43.3236800 , "lon": -1.0108589 , "pop": 505 },
{ "nom": "Bergouey-Viellenave" , "lat": 43.4217709 , "lon": -1.0560674 , "pop": 123 },
{ "nom": "Beyrie-sur-Joyeuse" , "lat": 43.3125460 , "lon": -1.0812830 , "pop": 561 },
{ "nom": "Bidache" , "lat": 43.4834030 , "lon": -1.1415540 , "pop": 1338 },
{ "nom": "Bonloc" , "lat": 43.3676406 , "lon": -1.2664610 , "pop": 376 },
{ "nom": "Bunus" , "lat": 43.2093920 , "lon": -1.0697314 , "pop": 133 },
{ "nom": "Came" , "lat": 43.4725871 , "lon": -1.1089826 , "pop": 1024 },
{ "nom": "Domezain-Berraute" , "lat": 43.3263290 , "lon": -0.9657060 , "pop": 473 },
{ "nom": "Etcharry" , "lat": 43.3228624 , "lon": -0.9283758 , "pop": 144 },
{ "nom": "Gabat" , "lat": 43.3709139 , "lon": -1.0341062 , "pop": 274 },
{ "nom": "Garris" , "lat": 43.3400512 , "lon": -1.0587610 , "pop": 320 },
{ "nom": "Hélette" , "lat": 43.3066090 , "lon": -1.2435520 , "pop": 758 },
{ "nom": "Hosta" , "lat": 43.1586056 , "lon": -1.0880514 , "pop": 100 },
{ "nom": "Ibarrolle" , "lat": 43.2003737 , "lon": -1.0936276 , "pop": 73 },
{ "nom": "Iholdy" , "lat": 43.2814420 , "lon": -1.1806010 , "pop": 550 },
{ "nom": "Ilharre" , "lat": 43.3917378 , "lon": -1.0428689 , "pop": 147 },
{ "nom": "Irissarry" , "lat": 43.2576548 , "lon": -1.2309213 , "pop": 870 },
{ "nom": "Isturits" , "lat": 43.3650302 , "lon": -1.2033995 , "pop": 537 },
{ "nom": "Juxue" , "lat": 43.2360767 , "lon": -1.0458503 , "pop": 200 },
{ "nom": "La Bastide-Clairence" , "lat": 43.4296520 , "lon": -1.2559440 , "pop": 1000 },
{ "nom": "Labets-Biscay" , "lat": 43.3832962 , "lon": -1.0569067 , "pop": 144 },
{ "nom": "Lantabat" , "lat": 43.2501003 , "lon": -1.1234615 , "pop": 297 },
{ "nom": "Larceveau-Arros-Cibits" , "lat": 43.2318201 , "lon": -1.0949631 , "pop": 449 },
{ "nom": "Larribar-Sorhapuru" , "lat": 43.2925240 , "lon": -1.0133686 , "pop": 187 },
{ "nom": "Lohitzun-Oyhercq" , "lat": 43.2759612 , "lon": -0.9772213 , "pop": 192 },
{ "nom": "Luxe-Sumberraute" , "lat": 43.3458078 , "lon": -1.0768338 , "pop": 385 },
{ "nom": "Masparraute" , "lat": 43.3897690 , "lon": -1.0944620 , "pop": 264 },
{ "nom": "Méharin" , "lat": 43.3333537 , "lon": -1.1451628 , "pop": 274 },
{ "nom": "Mendionde" , "lat": 43.3399264 , "lon": -1.2984851 , "pop": 854 },
{ "nom": "Orègue" , "lat": 43.3940154 , "lon": -1.1350366 , "pop": 531 },
{ "nom": "Orsanco" , "lat": 43.2928122 , "lon": -1.0650271 , "pop": 102 },
{ "nom": "Osserain-Rivareyte" , "lat": 43.3777320 , "lon": -0.9515300 , "pop": 235 },
{ "nom": "Ostabat-Asme" , "lat": 43.2555816 , "lon": -1.0712778 , "pop": 226 },
{ "nom": "Pagolle" , "lat": 43.2246071 , "lon": -0.9889761 , "pop": 246 },
{ "nom": "Saint-Esteben" , "lat": 43.3379837 , "lon": -1.2085820 , "pop": 442 },
{ "nom": "Saint-Just-Ibarre" , "lat": 43.1942770 , "lon": -1.0563880 , "pop": 197 },
{ "nom": "Saint-Martin-d'Arberoue" , "lat": 43.3453118 , "lon": -1.1961679 , "pop": 350 },
{ "nom": "Saint-Palais" , "lat": 43.3286925 , "lon": -1.0347187 , "pop": 2204 },
{ "nom": "Suhescun" , "lat": 43.2342849 , "lon": -1.1979847 , "pop": 165 },
{ "nom": "Uhart-Mixe" , "lat": 43.2786554 , "lon": -1.0217885 , "pop": 213 },
{ "nom": "Abère" , "lat": 43.3892334 , "lon": -0.1750057 , "pop": 156 },
{ "nom": "Andoins" , "lat": 43.3034981 , "lon": -0.2279362 , "pop": 727 },
{ "nom": "Anos" , "lat": 43.3938520 , "lon": -0.2908824 , "pop": 174 },
{ "nom": "Arrien" , "lat": 43.3091468 , "lon": -0.1597411 , "pop": 197 },
{ "nom": "Artigueloutan" , "lat": 43.2715580 , "lon": -0.2444830 , "pop": 1105 },
{ "nom": "Baleix" , "lat": 43.3776260 , "lon": -0.1311357 , "pop": 126 },
{ "nom": "Barinque" , "lat": 43.4069954 , "lon": -0.2721251 , "pop": 580 },
{ "nom": "Bédeille" , "lat": 43.3443170 , "lon": -0.1013982 , "pop": 202 },
{ "nom": "Bentayou-Sérée" , "lat": 43.3931654 , "lon": -0.0649825 , "pop": 107 },
{ "nom": "Bernadets" , "lat": 43.3753658 , "lon": -0.2886958 , "pop": 587 },
{ "nom": "Buros" , "lat": 43.3539630 , "lon": -0.3110424 , "pop": 2007 },
{ "nom": "Casteide-Doat" , "lat": 43.3751236 , "lon": -0.0136414 , "pop": 159 },
{ "nom": "Castéra-Loubix" , "lat": 43.4021292 , "lon": -0.0341436 , "pop": 51 },
{ "nom": "Escoubès" , "lat": 43.4188050 , "lon": -0.2432010 , "pop": 416 },
{ "nom": "Eslourenties-Daban" , "lat": 43.2986790 , "lon": -0.1445870 , "pop": 380 },
{ "nom": "Espéchède" , "lat": 43.3162287 , "lon": -0.1828294 , "pop": 165 },
{ "nom": "Gabaston" , "lat": 43.3590331 , "lon": -0.2095648 , "pop": 673 },
{ "nom": "Higuères-Souye" , "lat": 43.3783110 , "lon": -0.2599910 , "pop": 284 },
{ "nom": "Labatut-Figuières" , "lat": 43.4226505 , "lon": -0.0171157 , "pop": 172 },
{ "nom": "Lamayou" , "lat": 43.3816820 , "lon": -0.0273070 , "pop": 214 },
{ "nom": "Lée" , "lat": 43.2932472 , "lon": -0.2966791 , "pop": 1271 },
{ "nom": "Lespourcy" , "lat": 43.3622940 , "lon": -0.1508380 , "pop": 178 },
{ "nom": "Lombia" , "lat": 43.3296250 , "lon": -0.1327579 , "pop": 206 },
{ "nom": "Maucor" , "lat": 43.3539983 , "lon": -0.2810254 , "pop": 564 },
{ "nom": "Maure" , "lat": 43.3819930 , "lon": -0.0722865 , "pop": 90 },
{ "nom": "Momy" , "lat": 43.3964112 , "lon": -0.1099373 , "pop": 114 },
{ "nom": "Monségur" , "lat": 43.4327053 , "lon": -0.0159533 , "pop": 136 },
{ "nom": "Montaner" , "lat": 43.3455180 , "lon": -0.0085950 , "pop": 408 },
{ "nom": "Morlaàs" , "lat": 43.3447979 , "lon": -0.2637323 , "pop": 4374 },
{ "nom": "Ouillon" , "lat": 43.3205120 , "lon": -0.2249150 , "pop": 553 },
{ "nom": "Ousse" , "lat": 43.2835410 , "lon": -0.2687970 , "pop": 1672 },
{ "nom": "Ponson-Debat-Pouts" , "lat": 43.3322949 , "lon": -0.0450185 , "pop": 94 },
{ "nom": "Pontiacq-Viellepinte" , "lat": 43.3622817 , "lon": -0.0516000 , "pop": 170 },
{ "nom": "Riupeyrous" , "lat": 43.4018109 , "lon": -0.2324496 , "pop": 240 },
{ "nom": "Saint-Armou" , "lat": 43.4098040 , "lon": -0.3075043 , "pop": 609 },
{ "nom": "Saint-Castin" , "lat": 43.3755200 , "lon": -0.3059524 , "pop": 862 },
{ "nom": "Saint-Jammes" , "lat": 43.3606947 , "lon": -0.2417861 , "pop": 642 },
{ "nom": "Saint-Laurent-Bretagne" , "lat": 43.3835623 , "lon": -0.1979512 , "pop": 449 },
{ "nom": "Saubole" , "lat": 43.3127930 , "lon": -0.1256957 , "pop": 156 },
{ "nom": "Sedze-Maubecq" , "lat": 43.3518620 , "lon": -0.1235428 , "pop": 225 },
{ "nom": "Sedzère" , "lat": 43.3401006 , "lon": -0.1734342 , "pop": 406 },
{ "nom": "Sendets" , "lat": 43.2951037 , "lon": -0.2613646 , "pop": 1167 },
{ "nom": "Serres-Morlaàs" , "lat": 43.3255044 , "lon":  -0.2596373 , "pop": 870 },
{ "nom": "Urost" , "lat": 43.3417715 , "lon": -0.1510408 , "pop": 77 },
{ "nom": "Bidart" , "lat": 43.4392360 , "lon": -1.5900620 , "pop": 7689 },
{ "nom": "Ciboure" , "lat": 43.3825246 , "lon": -1.6760357 , "pop": 5951 },
{ "nom": "Guéthary" , "lat": 43.4207277 , "lon": -1.6109247 , "pop": 1306 },
{ "nom": "Saint-Jean-de-Luz" , "lat": 43.3967017 , "lon": -1.6455964 , "pop": 14857 },
{ "nom": "Anoye" , "lat": 43.3945512 , "lon": -0.1387356 , "pop": 140 },
{ "nom": "Argelos" , "lat": 43.4514895 , "lon": -0.3478209 , "pop": 263 },
{ "nom": "Arricau-Bordes" , "lat": 43.4936697 , "lon": -0.1350296 , "pop": 105 },
{ "nom": "Arrosès" , "lat": 43.5413767 , "lon": -0.1118395 , "pop": 136 },
{ "nom": "Astis" , "lat": 43.4421458 , "lon": -0.3295688 , "pop": 353 },
{ "nom": "Aubin" , "lat": 43.4406475 , "lon": -0.4154518 , "pop": 265 },
{ "nom": "Aubous" , "lat": 43.5770677 , "lon": -0.1345872 , "pop": 45 },
{ "nom": "Auga" , "lat": 43.4769099 , "lon": -0.3808814 , "pop": 189 },
{ "nom": "Auriac" , "lat": 43.4550399 , "lon": -0.3164159 , "pop": 247 },
{ "nom": "Aurions-Idernes" , "lat": 43.5376367 , "lon": -0.1389616 , "pop": 112 },
{ "nom": "Aydie" , "lat": 43.5695381 , "lon": -0.1045462 , "pop": 130 },
{ "nom": "Baliracq-Maumusson" , "lat": 43.5455109 , "lon": -0.2548282 , "pop": 120 },
{ "nom": "Bassillon-Vauzé" , "lat": 43.4548600 , "lon": -0.0767908 , "pop": 64 },
{ "nom": "Bétracq" , "lat": 43.5130756 , "lon": -0.0546194 , "pop": 49 },
{ "nom": "Boueilh-Boueilho-Lasque" , "lat": 43.5417742 , "lon": -0.3126571 , "pop": 382 },
{ "nom": "Bournos" , "lat": 43.4390053 , "lon": -0.3871676 , "pop": 338 },
{ "nom": "Burosse-Mendousse" , "lat": 43.5114183 , "lon": -0.2114988 , "pop": 81 },
{ "nom": "Cadillon" , "lat": 43.5262192 , "lon": -0.1562721 , "pop": 95 },
{ "nom": "Carrère" , "lat": 43.4824114 , "lon": -0.2806012 , "pop": 221 },
{ "nom": "Castetpugnon" , "lat": 43.5610799 , "lon": -0.2300847 , "pop": 214 },
{ "nom": "Castillon-de-Lembeye" , "lat": 43.4802554 , "lon": -0.1284518 , "pop": 83 },
{ "nom": "Caubios-Loos" , "lat": 43.4125343 , "lon": -0.4070084 , "pop": 683 },
{ "nom": "Claracq" , "lat": 43.5100010 , "lon": -0.2999462 , "pop": 237 },
{ "nom": "Conchez-de-Béarn" , "lat": 43.5454713 , "lon": -0.1689654 , "pop": 116 },
{ "nom": "Corbère-Abères" , "lat": 43.4728970 , "lon": -0.0875915 , "pop": 96 },
{ "nom": "Coslédaà-Lube-Boast" , "lat": 43.4595481 , "lon": -0.2371308 , "pop": 374 },
{ "nom": "Crouseilles" , "lat": 43.5249944 , "lon": -0.0889911 , "pop": 118 },
{ "nom": "Diusse" , "lat": 43.5637078 , "lon": -0.1648423 , "pop": 146 },
{ "nom": "Doumy" , "lat": 43.4458270 , "lon": -0.3785810 , "pop": 325 },
{ "nom": "Escurès" , "lat": 43.4657123 , "lon": -0.1235713 , "pop": 143 },
{ "nom": "Garlède-Mondebat" , "lat": 43.5012649 , "lon": -0.3317130 , "pop": 220 },
{ "nom": "Garlin" , "lat": 43.5595590 , "lon": -0.2716721 , "pop": 1360 },
{ "nom": "Gayon" , "lat": 43.4821586 , "lon": -0.1699104 , "pop": 57 },
{ "nom": "Gerderest" , "lat": 43.4104406 , "lon": -0.1773666 , "pop": 141 },
{ "nom": "Lalongue" , "lat": 43.4768010 , "lon": -0.1911670 , "pop": 201 },
{ "nom": "Lalonquette" , "lat": 43.4882860 , "lon": -0.3187330 , "pop": 261 },
{ "nom": "Lannecaube" , "lat": 43.4837135 , "lon": -0.2120557 , "pop": 145 },
{ "nom": "Lasclaveries" , "lat": 43.4367998 , "lon": -0.2913924 , "pop": 246 },
{ "nom": "Lasserre" , "lat": 43.5144060 , "lon": -0.0835436 , "pop": 115 },
{ "nom": "Lembeye" , "lat": 43.4492171 , "lon": -0.1097836 , "pop": 838 },
{ "nom": "Lème" , "lat": 43.4937080 , "lon": -0.3678084 , "pop": 168 },
{ "nom": "Lespielle" , "lat": 43.4732766 , "lon": -0.1443801 , "pop": 152 },
{ "nom": "Luc-Armau" , "lat": 43.4215612 , "lon": -0.0656460 , "pop": 104 },
{ "nom": "Lucarré" , "lat": 43.4050026 , "lon": -0.0838481 , "pop": 64 },
{ "nom": "Lussagnet-Lusson" , "lat": 43.4412300 , "lon": -0.1983246 , "pop": 183 },
{ "nom": "Mascaraàs-Haron" , "lat": 43.5419262 , "lon": -0.2248954 , "pop": 109 },
{ "nom": "Maspie-Lalonquère-Juillacq" , "lat": 43.4216892 , "lon": -0.1476775 , "pop": 233 },
{ "nom": "Miossens-Lanusse" , "lat": 43.4687060 , "lon": -0.3004730 , "pop": 288 },
{ "nom": "Monassut-Audiracq" , "lat": 43.4191784 , "lon": -0.1957620 , "pop": 369 },
{ "nom": "Moncaup" , "lat": 43.4851637 , "lon": -0.0599808 , "pop": 156 },
{ "nom": "Moncla" , "lat": 43.5817980 , "lon": -0.2324920 , "pop": 90 },
{ "nom": "Monpezat" , "lat": 43.5020519 , "lon": -0.0673721 , "pop": 80 },
{ "nom": "Mont-Disse" , "lat": 43.5581140 , "lon": -0.1514834 , "pop": 81 },
{ "nom": "Montardon" , "lat": 43.3684600 , "lon": -0.3467290 , "pop": 2419 },
{ "nom": "Mouhous" , "lat": 43.4893791 , "lon": -0.2596830 , "pop": 75 },
{ "nom": "Navailles-Angos" , "lat": 43.4134430 , "lon": -0.3417200 , "pop": 1545 },
{ "nom": "Peyrelongue-Abos" , "lat": 43.4234855 , "lon": -0.1058098 , "pop": 139 },
{ "nom": "Portet" , "lat": 43.5794784 , "lon": -0.1901299 , "pop": 161 },
{ "nom": "Pouliacq" , "lat": 43.5262756 , "lon": -0.3572706 , "pop": 49 },
{ "nom": "Ribarrouy" , "lat": 43.5235106 , "lon": -0.2721017 , "pop": 79 },
{ "nom": "Saint-Jean-Poudge" , "lat": 43.5249482 , "lon": -0.1840849 , "pop": 79 },
{ "nom": "Samsons-Lion" , "lat": 43.4347451 , "lon": -0.1197845 , "pop": 99 },
{ "nom": "Sauvagnon" , "lat": 43.4004181 , "lon": -0.3878398 , "pop": 3579 },
{ "nom": "Séméacq-Blachon" , "lat": 43.4995455 , "lon": -0.1120763 , "pop": 159 },
{ "nom": "Serres-Castet" , "lat": 43.3856911 , "lon": -0.3620825 , "pop": 4418 },
{ "nom": "Sévignacq" , "lat": 43.4408689 , "lon": -0.2627736 , "pop": 805 },
{ "nom": "Simacourbe" , "lat": 43.4430015 , "lon": -0.1662256 , "pop": 424 },
{ "nom": "Tadousse-Ussau" , "lat": 43.5426220 , "lon": -0.1913800 , "pop": 73 },
{ "nom": "Taron-Sadirac-Viellenave" , "lat": 43.5092896 , "lon": -0.2505179 , "pop": 168 },
{ "nom": "Thèze" , "lat": 43.4734431 , "lon": -0.3424834 , "pop": 898 },
{ "nom": "Vialer" , "lat": 43.5020715 , "lon": -0.1730223 , "pop": 144 },
{ "nom": "Viven" , "lat": 43.4639431 , "lon": -0.3708222 , "pop": 169 },
{ "nom": "Ahetze" , "lat": 43.4045730 , "lon": -1.5701823 , "pop": 2104 },
{ "nom": "Ainhoa" , "lat": 43.3067640 , "lon": -1.4989180 , "pop": 672 },
{ "nom": "Arbonne" , "lat": 43.4327005 , "lon": -1.5523671 , "pop": 2447 },
{ "nom": "Arcangues" , "lat": 43.4350756 , "lon": -1.5190628 , "pop": 3657 },
{ "nom": "Ascain" , "lat": 43.3444441 , "lon": -1.6230974 , "pop": 4658 },
{ "nom": "Bassussarry" , "lat": 43.4460160 , "lon": -1.5098360 , "pop": 3414 },
{ "nom": "Saint-Pée-sur-Nivelle" , "lat": 43.3565820 , "lon": -1.5504880 , "pop": 7264 },
{ "nom": "Sare" , "lat": 43.3141817 , "lon": -1.5831237 , "pop": 2763 },
{ "nom": "Ustaritz" , "lat": 43.3955185 , "lon": -1.4550861 , "pop": 7897 },
{ "nom": "Aast" , "lat": 43.2889920 , "lon": -0.0889858 , "pop": 202 },
{ "nom": "Angaïs" , "lat": 43.2377257 , "lon": -0.2541045 , "pop": 885 },
{ "nom": "Barzun" , "lat": 43.2159711 , "lon": -0.1325120 , "pop": 626 },
{ "nom": "Baudreix" , "lat": 43.2057700 , "lon": -0.2589659 , "pop": 591 },
{ "nom": "Bénéjacq" , "lat": 43.1919360 , "lon": -0.2128540 , "pop": 2013 },
{ "nom": "Beuste" , "lat": 43.2206637 , "lon": -0.2336525 , "pop": 698 },
{ "nom": "Boeil-Bezing" , "lat": 43.2206791 , "lon": -0.2663632 , "pop": 1341 },
{ "nom": "Bordères" , "lat": 43.2007552 , "lon": -0.2215261 , "pop": 694 },
{ "nom": "Bordes" , "lat": 43.2340481 , "lon": -0.2809939 , "pop": 2872 },
{ "nom": "Coarraze" , "lat": 43.1697450 , "lon": -0.2311040 , "pop": 2177 },
{ "nom": "Espoey" , "lat": 43.2457240 , "lon": -0.1683670 , "pop": 1223 },
{ "nom": "Ger" , "lat": 43.2530630 , "lon": -0.0517020 , "pop": 2137 },
{ "nom": "Gomer" , "lat": 43.2486583 , "lon": -0.1946674 , "pop": 298 },
{ "nom": "Hours" , "lat": 43.2291700 , "lon": -0.1692790 , "pop": 231 },
{ "nom": "Igon" , "lat": 43.1511887 , "lon": -0.2256486 , "pop": 1028 },
{ "nom": "Labatmale" , "lat": 43.1827945 , "lon": -0.1523213 , "pop": 257 },
{ "nom": "Lagos" , "lat": 43.2069108 , "lon": -0.2251959 , "pop": 473 },
{ "nom": "Lestelle-Bétharram" , "lat": 43.1293761 , "lon": -0.2079794 , "pop": 788 },
{ "nom": "Limendous" , "lat": 43.2763433 , "lon": -0.1822002 , "pop": 690 },
{ "nom": "Livron" , "lat": 43.2269191 , "lon": -0.1419063 , "pop": 380 },
{ "nom": "Lourenties" , "lat": 43.2882590 , "lon": -0.1602048 , "pop": 427 },
{ "nom": "Lucgarier" , "lat": 43.2363270 , "lon": -0.1920945 , "pop": 273 },
{ "nom": "Mirepeix" , "lat": 43.1910442 , "lon": -0.2516462 , "pop": 1255 },
{ "nom": "Montaut" , "lat": 43.1299908 , "lon": -0.2004549 , "pop": 1120 },
{ "nom": "Nousty" , "lat": 43.2670889 , "lon": -0.2093253 , "pop": 1572 },
{ "nom": "Ponson-Dessus" , "lat": 43.3131955 , "lon": -0.0534061 , "pop": 261 },
{ "nom": "Pontacq" , "lat": 43.1838057 , "lon": -0.1131348 , "pop": 2925 },
{ "nom": "Saint-Vincent" , "lat": 43.1614897 , "lon": -0.1524742 , "pop": 402 },
{ "nom": "Soumoulou" , "lat": 43.2616306 , "lon": -0.1918455 , "pop": 1583 }
]