[
{ "nom": "Aigné", "lat": 48.0659633, "lon": 0.1181784, "pop": 1695 },
{ "nom": "Aillières-Beauvoir", "lat": 48.404563, "lon": 0.324734, "pop": 200 },
{ "nom": "Allonnes", "lat": 47.9735597, "lon": 0.1582198, "pop": 10739 },
{ "nom": "Amné", "lat": 48.040375, "lon": -0.057603, "pop": 569 },
{ "nom": "Ancinnes", "lat": 48.368124, "lon": 0.176464, "pop": 895 },
{ "nom": "Arçonnay", "lat": 48.39691, "lon": 0.087244, "pop": 1902 },
{ "nom": "Ardenay-sur-Mérize", "lat": 47.9957013, "lon": 0.4246359, "pop": 504 },
{ "nom": "Arnage", "lat": 47.9289081, "lon": 0.185883, "pop": 5445 },
{ "nom": "Arthezé", "lat": 47.7877871, "lon": -0.1190794, "pop": 350 },
{ "nom": "Asnières-sur-Vègre", "lat": 47.8869202, "lon": -0.2323593, "pop": 331 },
{ "nom": "Assé-le-Boisne", "lat": 48.323639, "lon": -0.009467, "pop": 881 },
{ "nom": "Assé-le-Riboul", "lat": 48.194052, "lon": 0.0867794, "pop": 479 },
{ "nom": "Aubigné-Racan", "lat": 47.689981, "lon": 0.270233, "pop": 2158 },
{ "nom": "Auvers-le-Hamon", "lat": 47.902617, "lon": -0.353136, "pop": 1445 },
{ "nom": "Auvers-sous-Montfaucon", "lat": 48.0064402, "lon": -0.0704668, "pop": 231 },
{ "nom": "Avesnes-en-Saosnois", "lat": 48.2636095, "lon": 0.3710941, "pop": 93 },
{ "nom": "Avessé", "lat": 47.9544156, "lon": -0.2505003, "pop": 332 },
{ "nom": "Avezé", "lat": 48.226974, "lon": 0.677504, "pop": 690 },
{ "nom": "Avoise", "lat": 47.8663002, "lon": -0.2076863, "pop": 594 },
{ "nom": "Ballon-Saint-Mars", "lat": 48.175529, "lon": 0.2348674, "pop": 2273 },
{ "nom": "Bazouges Cré sur Loir", "lat": 47.6889741, "lon": -0.1701514, "pop": 1977 },
{ "nom": "Beaufay", "lat": 48.146652, "lon": 0.363191, "pop": 1522 },
{ "nom": "Beaumont-Pied-de-Bœuf", "lat": 47.759491, "lon": 0.400214, "pop": 472 },
{ "nom": "Beaumont-sur-Dême", "lat": 47.69282, "lon": 0.569199, "pop": 326 },
{ "nom": "Beaumont-sur-Sarthe", "lat": 48.2279408, "lon": 0.1325129, "pop": 1972 },
{ "nom": "Beillé", "lat": 48.082427, "lon": 0.510098, "pop": 542 },
{ "nom": "Berfay", "lat": 47.992907, "lon": 0.764918, "pop": 333 },
{ "nom": "Bernay-Neuvy-en-Champagne", "lat": 48.0805916, "lon": -0.0419135, "pop": 756 },
{ "nom": "Bérus", "lat": 48.3748846, "lon": 0.0512352, "pop": 435 },
{ "nom": "Bessé-sur-Braye", "lat": 47.833387, "lon": 0.753144, "pop": 1972 },
{ "nom": "Béthon", "lat": 48.360295, "lon": 0.0879044, "pop": 323 },
{ "nom": "Blèves", "lat": 48.455855, "lon": 0.3467219, "pop": 128 },
{ "nom": "Boëssé-le-Sec", "lat": 48.134565, "lon": 0.563353, "pop": 515 },
{ "nom": "Bonnétable", "lat": 48.1779994, "lon": 0.4259385, "pop": 3703 },
{ "nom": "Bouër", "lat": 48.08213, "lon": 0.628529, "pop": 350 },
{ "nom": "Bouloire", "lat": 47.973317, "lon": 0.548873, "pop": 2127 },
{ "nom": "Bourg-le-Roi", "lat": 48.345512, "lon": 0.134842, "pop": 325 },
{ "nom": "Bousse", "lat": 47.769143, "lon": -0.059422, "pop": 431 },
{ "nom": "Brains-sur-Gée", "lat": 48.014396, "lon": -0.026463, "pop": 757 },
{ "nom": "Brette-les-Pins", "lat": 47.91358, "lon": 0.338927, "pop": 2131 },
{ "nom": "Briosne-lès-Sables", "lat": 48.1739802, "lon": 0.3942238, "pop": 558 },
{ "nom": "Brûlon", "lat": 47.9669701, "lon": -0.2322445, "pop": 1549 },
{ "nom": "Cérans-Foulletourte", "lat": 47.8272318, "lon": 0.0756251, "pop": 3341 },
{ "nom": "Chahaignes", "lat": 47.7411, "lon": 0.513586, "pop": 664 },
{ "nom": "Challes", "lat": 47.929012, "lon": 0.415024, "pop": 1156 },
{ "nom": "Champagné", "lat": 48.0208083, "lon": 0.3309341, "pop": 3666 },
{ "nom": "Champfleur", "lat": 48.3861077, "lon": 0.1259601, "pop": 1282 },
{ "nom": "Champrond", "lat": 48.078258, "lon": 0.746096, "pop": 69 },
{ "nom": "Changé", "lat": 47.9858467, "lon": 0.2817997, "pop": 6911 },
{ "nom": "Chantenay-Villedieu", "lat": 47.9193547, "lon": -0.1619926, "pop": 807 },
{ "nom": "Chassillé", "lat": 48.020717, "lon": -0.116745, "pop": 249 },
{ "nom": "Château-l'Hermitage", "lat": 47.802983, "lon": 0.180731, "pop": 256 },
{ "nom": "Chaufour-Notre-Dame", "lat": 48.0253692, "lon": 0.0750029, "pop": 1173 },
{ "nom": "Chemiré-en-Charnie", "lat": 48.0539759, "lon": -0.2038526, "pop": 212 },
{ "nom": "Chemiré-le-Gaudin", "lat": 47.9285069, "lon": -0.0165677, "pop": 998 },
{ "nom": "Chenay", "lat": 48.4493191, "lon": 0.1630442, "pop": 255 },
{ "nom": "Chenu", "lat": 47.6126958, "lon": 0.3380704, "pop": 421 },
{ "nom": "Chérancé", "lat": 48.2886529, "lon": 0.174348, "pop": 353 },
{ "nom": "Chérisay", "lat": 48.3545939, "lon": 0.1116223, "pop": 303 },
{ "nom": "Cherré-Au", "lat": 48.1729197, "lon": 0.6568553, "pop": 2758 },
{ "nom": "Chevillé", "lat": 47.9482793, "lon": -0.2230573, "pop": 351 },
{ "nom": "Clermont-Créans", "lat": 47.717191, "lon": -0.01652, "pop": 1293 },
{ "nom": "Cogners", "lat": 47.8679669, "lon": 0.6591111, "pop": 170 },
{ "nom": "Commerveil", "lat": 48.3174881, "lon": 0.3571382, "pop": 138 },
{ "nom": "Conflans-sur-Anille", "lat": 47.946319, "lon": 0.7450324, "pop": 468 },
{ "nom": "Congé-sur-Orne", "lat": 48.2003277, "lon": 0.2542985, "pop": 314 },
{ "nom": "Conlie", "lat": 48.121467, "lon": -0.018231, "pop": 1833 },
{ "nom": "Connerré", "lat": 48.060283, "lon": 0.493572, "pop": 2780 },
{ "nom": "Contilly", "lat": 48.400969, "lon": 0.369752, "pop": 134 },
{ "nom": "Cormes", "lat": 48.170933, "lon": 0.706489, "pop": 893 },
{ "nom": "Coudrecieux", "lat": 47.9925523, "lon": 0.6286594, "pop": 636 },
{ "nom": "Coulaines", "lat": 48.0217172, "lon": 0.2012804, "pop": 8121 },
{ "nom": "Coulans-sur-Gée", "lat": 48.020076, "lon": 0.006856, "pop": 1605 },
{ "nom": "Coulongé", "lat": 47.688737, "lon": 0.201431, "pop": 506 },
{ "nom": "Courcebœufs", "lat": 48.136974, "lon": 0.28524, "pop": 640 },
{ "nom": "Courcelles-la-Forêt", "lat": 47.785761, "lon": -0.015643, "pop": 397 },
{ "nom": "Courcemont", "lat": 48.171984, "lon": 0.353393, "pop": 664 },
{ "nom": "Courcival", "lat": 48.229576, "lon": 0.39355, "pop": 80 },
{ "nom": "Courdemanche", "lat": 47.814304, "lon": 0.561242, "pop": 623 },
{ "nom": "Courgains", "lat": 48.2895561, "lon": 0.2793669, "pop": 581 },
{ "nom": "Courgenard", "lat": 48.1506575, "lon": 0.737039, "pop": 454 },
{ "nom": "Courtillers", "lat": 47.7988829, "lon": -0.303725, "pop": 901 },
{ "nom": "Crannes-en-Champagne", "lat": 47.9804437, "lon": -0.050941, "pop": 340 },
{ "nom": "Crissé", "lat": 48.1685069, "lon": -0.0604505, "pop": 534 },
{ "nom": "Crosmières", "lat": 47.7455161, "lon": -0.1520434, "pop": 974 },
{ "nom": "Cures", "lat": 48.099356, "lon": -0.0045668, "pop": 489 },
{ "nom": "Dangeul", "lat": 48.2472242, "lon": 0.2580258, "pop": 486 },
{ "nom": "Degré", "lat": 48.0482904, "lon": 0.0676892, "pop": 751 },
{ "nom": "Dehault", "lat": 48.2105486, "lon": 0.5711326, "pop": 241 },
{ "nom": "Dissay-sous-Courcillon", "lat": 47.6651149, "lon": 0.474651, "pop": 966 },
{ "nom": "Dollon", "lat": 48.0382127, "lon": 0.5882257, "pop": 1427 },
{ "nom": "Domfront-en-Champagne", "lat": 48.1053089, "lon": 0.0258426, "pop": 1069 },
{ "nom": "Doucelles", "lat": 48.257025, "lon": 0.169333, "pop": 223 },
{ "nom": "Douillet", "lat": 48.2719556, "lon": -0.0459825, "pop": 319 },
{ "nom": "Duneau", "lat": 48.068489, "lon": 0.519072, "pop": 1078 },
{ "nom": "Dureil", "lat": 47.8429828, "lon": -0.1456331, "pop": 61 },
{ "nom": "Écommoy", "lat": 47.830626, "lon": 0.2737617, "pop": 4868 },
{ "nom": "Écorpain", "lat": 47.937319, "lon": 0.663565, "pop": 296 },
{ "nom": "Épineu-le-Chevreuil", "lat": 48.0375149, "lon": -0.1152267, "pop": 286 },
{ "nom": "Étival-lès-le-Mans", "lat": 47.9564548, "lon": 0.0893491, "pop": 1826 },
{ "nom": "Fatines", "lat": 48.045201, "lon": 0.345469, "pop": 929 },
{ "nom": "Fay", "lat": 48.0082292, "lon": 0.0702965, "pop": 751 },
{ "nom": "Fercé-sur-Sarthe", "lat": 47.9013418, "lon": -0.0316907, "pop": 575 },
{ "nom": "Fillé", "lat": 47.8968916, "lon": 0.1258121, "pop": 1562 },
{ "nom": "Flée", "lat": 47.733275, "lon": 0.4527826, "pop": 528 },
{ "nom": "Fontenay-sur-Vègre", "lat": 47.9044929, "lon": -0.2211383, "pop": 307 },
{ "nom": "Fresnay-sur-Sarthe", "lat": 48.282232, "lon": 0.019434, "pop": 2928 },
{ "nom": "Fyé", "lat": 48.325708, "lon": 0.079567, "pop": 1013 },
{ "nom": "Gesnes-le-Gandelin", "lat": 48.3552177, "lon": 0.018457, "pop": 879 },
{ "nom": "Grandchamp", "lat": 48.3037029, "lon": 0.1819483, "pop": 137 },
{ "nom": "Gréez-sur-Roc", "lat": 48.136586, "lon": 0.796168, "pop": 344 },
{ "nom": "Guécélard", "lat": 47.8779198, "lon": 0.1302283, "pop": 3202 },
{ "nom": "Jauzé", "lat": 48.210661, "lon": 0.376363, "pop": 80 },
{ "nom": "Joué-en-Charnie", "lat": 48.01759, "lon": -0.192126, "pop": 589 },
{ "nom": "Joué-l'Abbé", "lat": 48.108807, "lon": 0.216679, "pop": 1267 },
{ "nom": "Juigné-sur-Sarthe", "lat": 47.8633894, "lon": -0.2866529, "pop": 1141 },
{ "nom": "Juillé", "lat": 48.24467, "lon": 0.122489, "pop": 407 },
{ "nom": "Jupilles", "lat": 47.792267, "lon": 0.412685, "pop": 566 },
{ "nom": "La Bazoge", "lat": 48.0990507, "lon": 0.1544855, "pop": 3796 },
{ "nom": "La Bosse", "lat": 48.170376, "lon": 0.5259439, "pop": 155 },
{ "nom": "La Bruère-sur-Loir", "lat": 47.651075, "lon": 0.347846, "pop": 250 },
{ "nom": "La Chapelle-aux-Choux", "lat": 47.6324161, "lon": 0.2320079, "pop": 283 },
{ "nom": "La Chapelle-d'Aligné", "lat": 47.734376, "lon": -0.234684, "pop": 1729 },
{ "nom": "La Chapelle-du-Bois", "lat": 48.220685, "lon": 0.591735, "pop": 768 },
{ "nom": "La Chapelle-Huon", "lat": 47.856144, "lon": 0.742155, "pop": 513 },
{ "nom": "La Chapelle-Saint-Aubin", "lat": 48.0347239, "lon": 0.1608937, "pop": 2256 },
{ "nom": "La Chapelle-Saint-Fray", "lat": 48.1103111, "lon": 0.0804699, "pop": 421 },
{ "nom": "La Chapelle-Saint-Rémy", "lat": 48.108681, "lon": 0.45589, "pop": 995 },
{ "nom": "La Chartre-sur-le-Loir", "lat": 47.728568, "lon": 0.571416, "pop": 1370 },
{ "nom": "La Ferté-Bernard", "lat": 48.1872464, "lon": 0.6516176, "pop": 8740 },
{ "nom": "La Flèche", "lat": 47.6992581, "lon": -0.0695211, "pop": 14947 },
{ "nom": "La Fontaine-Saint-Martin", "lat": 47.7908093, "lon": 0.0497986, "pop": 599 },
{ "nom": "La Guierche", "lat": 48.11277, "lon": 0.194526, "pop": 1300 },
{ "nom": "La Milesse", "lat": 48.0631759, "lon": 0.1371185, "pop": 2617 },
{ "nom": "La Quinte", "lat": 48.0589207, "lon": 0.0383687, "pop": 823 },
{ "nom": "La Suze-sur-Sarthe", "lat": 47.8880847, "lon": 0.0272796, "pop": 4693 },
{ "nom": "Laigné-Saint-Gervais", "lat": 47.877784, "lon": 0.2270605, "pop": 4252 },
{ "nom": "Lamnay", "lat": 48.11601, "lon": 0.70328, "pop": 928 },
{ "nom": "Lavardin", "lat": 48.0774183, "lon": 0.0612666, "pop": 693 },
{ "nom": "Lavaré", "lat": 48.054, "lon": 0.643544, "pop": 815 },
{ "nom": "Lavernat", "lat": 47.717574, "lon": 0.332085, "pop": 586 },
{ "nom": "Le Bailleul", "lat": 47.7691779, "lon": -0.162655, "pop": 1217 },
{ "nom": "Le Breil-sur-Mérize", "lat": 48.0085986, "lon": 0.4774046, "pop": 1552 },
{ "nom": "Le Grand-Lucé", "lat": 47.86619, "lon": 0.467655, "pop": 1949 },
{ "nom": "Le Grez", "lat": 48.1901762, "lon": -0.1523733, "pop": 380 },
{ "nom": "Le Luart", "lat": 48.0696395, "lon": 0.5873319, "pop": 1460 },
{ "nom": "Le Lude", "lat": 47.6429643, "lon": 0.1560551, "pop": 3983 },
{ "nom": "Le Mans", "lat": 48.0055764, "lon": 0.2010363, "pop": 146249 },
{ "nom": "Le Tronchet", "lat": 48.18115, "lon": 0.0762, "pop": 170 },
{ "nom": "Les Aulneaux", "lat": 48.4366977, "lon": 0.3322947, "pop": 111 },
{ "nom": "Les Mées", "lat": 48.3144839, "lon": 0.2314347, "pop": 103 },
{ "nom": "Lhomme", "lat": 47.7439048, "lon": 0.5575853, "pop": 933 },
{ "nom": "Ligron", "lat": 47.772066, "lon": 0.010352, "pop": 494 },
{ "nom": "Livet-en-Saosnois", "lat": 48.358914, "lon": 0.21146, "pop": 63 },
{ "nom": "Loir en Vallée", "lat": 47.7504683, "lon": 0.6215631, "pop": 2044 },
{ "nom": "Lombron", "lat": 48.080236, "lon": 0.4163877, "pop": 1960 },
{ "nom": "Longnes", "lat": 48.0192823, "lon": -0.0788126, "pop": 286 },
{ "nom": "Louailles", "lat": 47.7928538, "lon": -0.253048, "pop": 691 },
{ "nom": "Loué", "lat": 47.9950906, "lon": -0.1529739, "pop": 2156 },
{ "nom": "Louplande", "lat": 47.9437997, "lon": 0.0433995, "pop": 1505 },
{ "nom": "Louvigny", "lat": 48.3382914, "lon": 0.2028659, "pop": 178 },
{ "nom": "Louzes", "lat": 48.4280392, "lon": 0.3016798, "pop": 103 },
{ "nom": "Luceau", "lat": 47.71179, "lon": 0.398543, "pop": 1225 },
{ "nom": "Lucé-sous-Ballon", "lat": 48.2083427, "lon": 0.2147176, "pop": 108 },
{ "nom": "Luché-Pringé", "lat": 47.70406, "lon": 0.075918, "pop": 1535 },
{ "nom": "Maigné", "lat": 47.9384159, "lon": -0.052507, "pop": 326 },
{ "nom": "Maisoncelles", "lat": 47.93578, "lon": 0.5700229, "pop": 201 },
{ "nom": "Malicorne-sur-Sarthe", "lat": 47.8132157, "lon": -0.0796684, "pop": 1854 },
{ "nom": "Mamers", "lat": 48.3505811, "lon": 0.3748705, "pop": 4996 },
{ "nom": "Mansigné", "lat": 47.748029, "lon": 0.132847, "pop": 1555 },
{ "nom": "Marçon", "lat": 47.710267, "lon": 0.509982, "pop": 1057 },
{ "nom": "Mareil-en-Champagne", "lat": 47.9842387, "lon": -0.1676503, "pop": 342 },
{ "nom": "Mareil-sur-Loir", "lat": 47.714728, "lon": 0.013134, "pop": 653 },
{ "nom": "Maresché", "lat": 48.211226, "lon": 0.154968, "pop": 876 },
{ "nom": "Marigné-Laillé", "lat": 47.818064, "lon": 0.339444, "pop": 1653 },
{ "nom": "Marolles-les-Braults", "lat": 48.252822, "lon": 0.31128, "pop": 2039 },
{ "nom": "Marolles-lès-Saint-Calais", "lat": 47.9190413, "lon": 0.784076, "pop": 284 },
{ "nom": "Marollette", "lat": 48.3693691, "lon": 0.351673, "pop": 159 },
{ "nom": "Mayet", "lat": 47.759357, "lon": 0.275119, "pop": 3187 },
{ "nom": "Melleray", "lat": 48.0991327, "lon": 0.7996617, "pop": 454 },
{ "nom": "Meurcé", "lat": 48.2336049, "lon": 0.1998565, "pop": 275 },
{ "nom": "Mézeray", "lat": 47.8271905, "lon": -0.0172424, "pop": 1841 },
{ "nom": "Mézières-sous-Lavardin", "lat": 48.1545739, "lon": 0.0295318, "pop": 676 },
{ "nom": "Mézières-sur-Ponthouin", "lat": 48.1933692, "lon": 0.2999768, "pop": 725 },
{ "nom": "Moitron-sur-Sarthe", "lat": 48.2397488, "lon": 0.0322613, "pop": 258 },
{ "nom": "Moncé-en-Belin", "lat": 47.8952407, "lon": 0.1976789, "pop": 3697 },
{ "nom": "Moncé-en-Saosnois", "lat": 48.2742553, "lon": 0.3888317, "pop": 221 },
{ "nom": "Monhoudou", "lat": 48.285811, "lon": 0.325349, "pop": 214 },
{ "nom": "Montaillé", "lat": 47.936782, "lon": 0.701755, "pop": 516 },
{ "nom": "Montbizot", "lat": 48.1449639, "lon": 0.1834905, "pop": 1841 },
{ "nom": "Montfort-le-Gesnois", "lat": 48.0481353, "lon": 0.4167338, "pop": 2939 },
{ "nom": "Montmirail", "lat": 48.1035964, "lon": 0.7907843, "pop": 366 },
{ "nom": "Montreuil-le-Chétif", "lat": 48.2448839, "lon": -0.0356504, "pop": 318 },
{ "nom": "Montreuil-le-Henri", "lat": 47.866548, "lon": 0.567007, "pop": 295 },
{ "nom": "Mont-Saint-Jean", "lat": 48.2465863, "lon": -0.1068297, "pop": 628 },
{ "nom": "Montval-sur-Loir", "lat": 47.6916864, "lon": 0.4230385, "pop": 5641 },
{ "nom": "Moulins-le-Carbonnel", "lat": 48.370965, "lon": -0.0243416, "pop": 697 },
{ "nom": "Mulsanne", "lat": 47.9086573, "lon": 0.2444943, "pop": 5244 },
{ "nom": "Nauvay", "lat": 48.2552993, "lon": 0.3965482, "pop": 12 },
{ "nom": "Neufchâtel-en-Saosnois", "lat": 48.376739, "lon": 0.248163, "pop": 1003 },
{ "nom": "Neuvillalais", "lat": 48.1561554, "lon": -0.0013431, "pop": 585 },
{ "nom": "Neuville-sur-Sarthe", "lat": 48.0756902, "lon": 0.1898536, "pop": 2463 },
{ "nom": "Neuvillette-en-Charnie", "lat": 48.0939214, "lon": -0.2118828, "pop": 305 },
{ "nom": "Nogent-le-Bernard", "lat": 48.2363476, "lon": 0.4896868, "pop": 864 },
{ "nom": "Nogent-sur-Loir", "lat": 47.669526, "lon": 0.39444, "pop": 361 },
{ "nom": "Notre-Dame-du-Pé", "lat": 47.730262, "lon": -0.3261279, "pop": 710 },
{ "nom": "Nouans", "lat": 48.2391881, "lon": 0.2211809, "pop": 252 },
{ "nom": "Noyen-sur-Sarthe", "lat": 47.8693025, "lon": -0.0982365, "pop": 2556 },
{ "nom": "Nuillé-le-Jalais", "lat": 48.020538, "lon": 0.4824564, "pop": 528 },
{ "nom": "Oisseau-le-Petit", "lat": 48.349601, "lon": 0.087192, "pop": 671 },
{ "nom": "Oizé", "lat": 47.809683, "lon": 0.103687, "pop": 1322 },
{ "nom": "Panon", "lat": 48.3388573, "lon": 0.2945148, "pop": 33 },
{ "nom": "Parcé-sur-Sarthe", "lat": 47.844387, "lon": -0.202427, "pop": 1950 },
{ "nom": "Parennes", "lat": 48.119121, "lon": -0.187443, "pop": 444 },
{ "nom": "Parigné-le-Pôlin", "lat": 47.850664, "lon": 0.1088916, "pop": 1037 },
{ "nom": "Parigné-l'Évêque", "lat": 47.9367728, "lon": 0.3645915, "pop": 5358 },
{ "nom": "Peray", "lat": 48.2486403, "lon": 0.3646243, "pop": 70 },
{ "nom": "Pezé-le-Robert", "lat": 48.1932815, "lon": -0.0580547, "pop": 343 },
{ "nom": "Piacé", "lat": 48.2593036, "lon": 0.1129508, "pop": 370 },
{ "nom": "Pincé", "lat": 47.797438, "lon": -0.380948, "pop": 192 },
{ "nom": "Pirmil", "lat": 47.9111564, "lon": -0.0984755, "pop": 512 },
{ "nom": "Pizieux", "lat": 48.32177, "lon": 0.3310989, "pop": 75 },
{ "nom": "Poillé-sur-Vègre", "lat": 47.919329, "lon": -0.2656304, "pop": 582 },
{ "nom": "Pontvallain", "lat": 47.751156, "lon": 0.192151, "pop": 1607 },
{ "nom": "Précigné", "lat": 47.76703, "lon": -0.324305, "pop": 2877 },
{ "nom": "Préval", "lat": 48.2349185, "lon": 0.6235822, "pop": 656 },
{ "nom": "Prévelles", "lat": 48.1527146, "lon": 0.4836613, "pop": 188 },
{ "nom": "Pruillé-le-Chétif", "lat": 47.9941106, "lon": 0.107613, "pop": 1329 },
{ "nom": "Pruillé-l'Éguillé", "lat": 47.8363, "lon": 0.432205, "pop": 801 },
{ "nom": "Rahay", "lat": 47.9608319, "lon": 0.8317075, "pop": 167 },
{ "nom": "René", "lat": 48.277265, "lon": 0.220105, "pop": 387 },
{ "nom": "Requeil", "lat": 47.7849338, "lon": 0.1612263, "pop": 1108 },
{ "nom": "Roëzé-sur-Sarthe", "lat": 47.8945682, "lon": 0.0679745, "pop": 2514 },
{ "nom": "Rouessé-Fontaine", "lat": 48.3244182, "lon": 0.1511265, "pop": 261 },
{ "nom": "Rouessé-Vassé", "lat": 48.16022, "lon": -0.198862, "pop": 785 },
{ "nom": "Rouez", "lat": 48.1402098, "lon": -0.1149924, "pop": 804 },
{ "nom": "Rouillon", "lat": 48.00549, "lon": 0.1359116, "pop": 2382 },
{ "nom": "Rouperroux-le-Coquet", "lat": 48.225896, "lon": 0.428607, "pop": 266 },
{ "nom": "Ruaudin", "lat": 47.9437555, "lon": 0.2636155, "pop": 3481 },
{ "nom": "Ruillé-en-Champagne", "lat": 48.0600742, "lon": -0.0830079, "pop": 310 },
{ "nom": "Sablé-sur-Sarthe", "lat": 47.8406652, "lon": -0.3359853, "pop": 12326 },
{ "nom": "Saint-Aignan", "lat": 48.2150104, "lon": 0.3414777, "pop": 264 },
{ "nom": "Saint-Aubin-de-Locquenay", "lat": 48.269368, "lon": 0.023704, "pop": 761 },
{ "nom": "Saint-Aubin-des-Coudrais", "lat": 48.1725613, "lon": 0.5853558, "pop": 890 },
{ "nom": "Saint-Biez-en-Belin", "lat": 47.820968, "lon": 0.239037, "pop": 710 },
{ "nom": "Saint-Calais", "lat": 47.9216399, "lon": 0.7455165, "pop": 2948 },
{ "nom": "Saint-Calez-en-Saosnois", "lat": 48.3130847, "lon": 0.3056239, "pop": 179 },
{ "nom": "Saint-Célerin", "lat": 48.1242159, "lon": 0.431876, "pop": 882 },
{ "nom": "Saint-Christophe-du-Jambet", "lat": 48.2315087, "lon": 0.0364585, "pop": 231 },
{ "nom": "Saint-Christophe-en-Champagne", "lat": 47.9675316, "lon": -0.1377201, "pop": 218 },
{ "nom": "Saint-Corneille", "lat": 48.067292, "lon": 0.344522, "pop": 1510 },
{ "nom": "Saint-Cosme-en-Vairais", "lat": 48.2730016, "lon": 0.4627271, "pop": 1927 },
{ "nom": "Saint-Denis-des-Coudrais", "lat": 48.1502943, "lon": 0.5073351, "pop": 113 },
{ "nom": "Saint-Denis-d'Orques", "lat": 48.0289879, "lon": -0.2724836, "pop": 760 },
{ "nom": "Sainte-Cérotte", "lat": 47.900083, "lon": 0.68768, "pop": 337 },
{ "nom": "Sainte-Jamme-sur-Sarthe", "lat": 48.141116, "lon": 0.1674284, "pop": 1950 },
{ "nom": "Sainte-Sabine-sur-Longève", "lat": 48.1405945, "lon": 0.0955494, "pop": 743 },
{ "nom": "Saint-Georges-de-la-Couée", "lat": 47.841566, "lon": 0.583114, "pop": 181 },
{ "nom": "Saint-Georges-du-Bois", "lat": 47.9725606, "lon": 0.0993384, "pop": 2285 },
{ "nom": "Saint-Georges-du-Rosay", "lat": 48.198543, "lon": 0.49966, "pop": 452 },
{ "nom": "Saint-Georges-le-Gaultier", "lat": 48.296752, "lon": -0.1064859, "pop": 517 },
{ "nom": "Saint-Germain-d'Arcé", "lat": 47.6240949, "lon": 0.289906, "pop": 337 },
{ "nom": "Saint-Gervais-de-Vic", "lat": 47.8863755, "lon": 0.7414211, "pop": 383 },
{ "nom": "Saint-Jean-d'Assé", "lat": 48.150958, "lon": 0.11807, "pop": 1790 },
{ "nom": "Saint-Jean-de-la-Motte", "lat": 47.7424316, "lon": 0.0560886, "pop": 955 },
{ "nom": "Saint-Jean-des-Échelles", "lat": 48.130988, "lon": 0.71247, "pop": 222 },
{ "nom": "Saint-Jean-du-Bois", "lat": 47.8727925, "lon": -0.0390767, "pop": 616 },
{ "nom": "Saint-Léonard-des-Bois", "lat": 48.352727, "lon": -0.075563, "pop": 471 },
{ "nom": "Saint-Longis", "lat": 48.355469, "lon": 0.3470448, "pop": 509 },
{ "nom": "Saint-Maixent", "lat": 48.090293, "lon": 0.648798, "pop": 741 },
{ "nom": "Saint-Marceau", "lat": 48.1796495, "lon": 0.1279518, "pop": 530 },
{ "nom": "Saint-Mars-d'Outillé", "lat": 47.870215, "lon": 0.3275989, "pop": 2483 },
{ "nom": "Saint-Mars-la-Brière", "lat": 48.0290466, "lon": 0.3702594, "pop": 2681 },
{ "nom": "Saint-Martin-des-Monts", "lat": 48.1485303, "lon": 0.5975272, "pop": 178 },
{ "nom": "Saint-Michel-de-Chavaignes", "lat": 48.0186242, "lon": 0.5704813, "pop": 737 },
{ "nom": "Saint-Ouen-de-Mimbré", "lat": 48.2924848, "lon": 0.0483568, "pop": 901 },
{ "nom": "Saint-Ouen-en-Belin", "lat": 47.833485, "lon": 0.211566, "pop": 1313 },
{ "nom": "Saint-Ouen-en-Champagne", "lat": 47.9499161, "lon": -0.1890096, "pop": 237 },
{ "nom": "Saint-Paterne - Le Chevain", "lat": 48.4163539, "lon": 0.1118633, "pop": 2076 },
{ "nom": "Saint-Paul-le-Gaultier", "lat": 48.3213865, "lon": -0.1091161, "pop": 285 },
{ "nom": "Saint-Pavace", "lat": 48.037203, "lon": 0.185308, "pop": 2007 },
{ "nom": "Saint-Pierre-de-Chevillé", "lat": 47.6464519, "lon": 0.437925, "pop": 334 },
{ "nom": "Saint-Pierre-des-Bois", "lat": 47.9403251, "lon": -0.1401944, "pop": 220 },
{ "nom": "Saint-Pierre-des-Ormes", "lat": 48.3061705, "lon": 0.4214289, "pop": 206 },
{ "nom": "Saint-Pierre-du-Lorouër", "lat": 47.806013, "lon": 0.520977, "pop": 356 },
{ "nom": "Saint-Rémy-de-Sillé", "lat": 48.1875166, "lon": -0.0943619, "pop": 828 },
{ "nom": "Saint-Rémy-des-Monts", "lat": 48.3087585, "lon": 0.4001686, "pop": 713 },
{ "nom": "Saint-Rémy-du-Val", "lat": 48.3469234, "lon": 0.2546763, "pop": 493 },
{ "nom": "Saint-Saturnin", "lat": 48.0632189, "lon": 0.1636402, "pop": 2774 },
{ "nom": "Saint-Symphorien", "lat": 48.0720504, "lon": -0.1143295, "pop": 509 },
{ "nom": "Saint-Ulphace", "lat": 48.1585155, "lon": 0.8171376, "pop": 222 },
{ "nom": "Saint-Victeur", "lat": 48.3226132, "lon": 0.0389199, "pop": 432 },
{ "nom": "Saint-Vincent-des-Prés", "lat": 48.2954405, "lon": 0.3848227, "pop": 502 },
{ "nom": "Saint-Vincent-du-Lorouër", "lat": 47.8249582, "lon": 0.4892825, "pop": 814 },
{ "nom": "Saosnes", "lat": 48.3257685, "lon": 0.2777578, "pop": 216 },
{ "nom": "Sarcé", "lat": 47.7207465, "lon": 0.2205362, "pop": 264 },
{ "nom": "Sargé-lès-le-Mans", "lat": 48.0330185, "lon": 0.240505, "pop": 3851 },
{ "nom": "Savigné-l'Évêque", "lat": 48.0768409, "lon": 0.2987487, "pop": 4031 },
{ "nom": "Savigné-sous-le-Lude", "lat": 47.6185491, "lon": 0.0583481, "pop": 446 },
{ "nom": "Sceaux-sur-Huisne", "lat": 48.1050846, "lon": 0.5844856, "pop": 587 },
{ "nom": "Ségrie", "lat": 48.1995041, "lon": 0.0253278, "pop": 592 },
{ "nom": "Semur-en-Vallon", "lat": 48.0239522, "lon": 0.6543201, "pop": 428 },
{ "nom": "Sillé-le-Guillaume", "lat": 48.1831324, "lon": -0.1281804, "pop": 2195 },
{ "nom": "Sillé-le-Philippe", "lat": 48.107385, "lon": 0.35085, "pop": 1085 },
{ "nom": "Solesmes", "lat": 47.8502141, "lon": -0.2993291, "pop": 1240 },
{ "nom": "Sougé-le-Ganelon", "lat": 48.3175699, "lon": -0.0281205, "pop": 826 },
{ "nom": "Souillé", "lat": 48.117675, "lon": 0.182378, "pop": 797 },
{ "nom": "Souligné-Flacé", "lat": 47.9737387, "lon": 0.0125253, "pop": 636 },
{ "nom": "Souligné-sous-Ballon", "lat": 48.1369649, "lon": 0.235426, "pop": 1244 },
{ "nom": "Soulitré", "lat": 48.0114495, "lon": 0.4560493, "pop": 597 },
{ "nom": "Souvigné-sur-Même", "lat": 48.2205483, "lon": 0.6357575, "pop": 164 },
{ "nom": "Souvigné-sur-Sarthe", "lat": 47.827005, "lon": -0.3877623, "pop": 603 },
{ "nom": "Spay", "lat": 47.9237099, "lon": 0.1509696, "pop": 2808 },
{ "nom": "Surfonds", "lat": 47.97529, "lon": 0.460595, "pop": 339 },
{ "nom": "Tassé", "lat": 47.8892077, "lon": -0.1366784, "pop": 287 },
{ "nom": "Tassillé", "lat": 47.9928594, "lon": -0.0936577, "pop": 136 },
{ "nom": "Teillé", "lat": 48.180717, "lon": 0.189668, "pop": 543 },
{ "nom": "Teloché", "lat": 47.887454, "lon": 0.267745, "pop": 3067 },
{ "nom": "Tennie", "lat": 48.1076532, "lon": -0.0766888, "pop": 1000 },
{ "nom": "Terrehault", "lat": 48.205, "lon": 0.402123, "pop": 139 },
{ "nom": "Théligny", "lat": 48.1747407, "lon": 0.8000989, "pop": 215 },
{ "nom": "Thoigné", "lat": 48.2891934, "lon": 0.2533941, "pop": 165 },
{ "nom": "Thoiré-sous-Contensor", "lat": 48.3111881, "lon": 0.2007753, "pop": 111 },
{ "nom": "Thoiré-sur-Dinan", "lat": 47.75267, "lon": 0.448197, "pop": 399 },
{ "nom": "Thorée-les-Pins", "lat": 47.6868089, "lon": 0.0423409, "pop": 744 },
{ "nom": "Thorigné-sur-Dué", "lat": 48.0400084, "lon": 0.5358559, "pop": 1637 },
{ "nom": "Torcé-en-Vallée", "lat": 48.133227, "lon": 0.39698, "pop": 1397 },
{ "nom": "Trangé", "lat": 48.0270452, "lon": 0.1134059, "pop": 1637 },
{ "nom": "Tresson", "lat": 47.902769, "lon": 0.571871, "pop": 511 },
{ "nom": "Tuffé Val de la Chéronne", "lat": 48.1114687, "lon": 0.5151658, "pop": 1680 },
{ "nom": "Vaas", "lat": 47.6672433, "lon": 0.3137171, "pop": 1371 },
{ "nom": "Val-de-la-Hune", "lat": 47.931992, "lon": 0.467965, "pop": 1521 },
{ "nom": "Val-d'Étangson", "lat": 47.9005307, "lon": 0.6302145, "pop": 530 },
{ "nom": "Valennes", "lat": 47.9955018, "lon": 0.8094265, "pop": 303 },
{ "nom": "Vallon-sur-Gée", "lat": 47.9628235, "lon": -0.0687412, "pop": 774 },
{ "nom": "Vancé", "lat": 47.830135, "lon": 0.646779, "pop": 283 },
{ "nom": "Verneil-le-Chétif", "lat": 47.732615, "lon": 0.295826, "pop": 584 },
{ "nom": "Vernie", "lat": 48.1836708, "lon": 0.021119, "pop": 346 },
{ "nom": "Vezot", "lat": 48.352861, "lon": 0.2905478, "pop": 75 },
{ "nom": "Vibraye", "lat": 48.059243, "lon": 0.736259, "pop": 2523 },
{ "nom": "Villaines-la-Carelle", "lat": 48.376845, "lon": 0.2991, "pop": 132 },
{ "nom": "Villaines-la-Gonais", "lat": 48.134844, "lon": 0.600468, "pop": 510 },
{ "nom": "Villaines-sous-Lucé", "lat": 47.86574, "lon": 0.480073, "pop": 645 },
{ "nom": "Villaines-sous-Malicorne", "lat": 47.7657984, "lon": -0.0988889, "pop": 1032 },
{ "nom": "Villeneuve-en-Perseigne", "lat": 48.4450938, "lon": 0.2557592, "pop": 2174 },
{ "nom": "Vion", "lat": 47.8192329, "lon": -0.239379, "pop": 1366 },
{ "nom": "Viré-en-Champagne", "lat": 47.9837872, "lon": -0.288991, "pop": 204 },
{ "nom": "Vivoin", "lat": 48.2343142, "lon": 0.1570916, "pop": 892 },
{ "nom": "Voivres-lès-le-Mans", "lat": 47.9292355, "lon": 0.0740392, "pop": 1345 },
{ "nom": "Vouvray-sur-Huisne", "lat": 48.0868219, "lon": 0.5502499, "pop": 131 },
{ "nom": "Yvré-le-Pôlin", "lat": 47.819816, "lon": 0.155067, "pop": 1717 },
{ "nom": "Yvré-l'Évêque", "lat": 48.0139762, "lon": 0.271887, "pop": 4181 }
]
