[
 { "nom": "Brison-Saint-Innocent" , "lat": 45.7213830 , "lon": 5.8895302 , "pop": 2445 },
 { "nom": "Entrelacs" , "lat": 45.7858317 , "lon": 5.9451485 , "pop": 6461 },
 { "nom": "Grésy-sur-Aix" , "lat": 45.7209129 , "lon": 5.9315014 , "pop": 4740 },
 { "nom": "La Biolle" , "lat": 45.7567354 , "lon": 5.9281540 , "pop": 2948 },
 { "nom": "Montcel" , "lat": 45.7223511 , "lon": 5.9823132 , "pop": 1111 },
 { "nom": "Pugny-Chatenod" , "lat": 45.6956197 , "lon": 5.9524441 , "pop": 1071 },
 { "nom": "Saint-Offenge" , "lat": 45.7350530 , "lon": 6.0026550 , "pop": 1179 },
 { "nom": "Saint-Ours" , "lat": 45.7569071 , "lon": 5.9885573 , "pop": 775 },
 { "nom": "Trévignin" , "lat": 45.7068292 , "lon": 5.9549332 , "pop": 870 },
 { "nom": "Aix-les-Bains" , "lat": 45.6890154 , "lon": 5.9128761 , "pop": 32406 },
 { "nom": "Mouxy" , "lat": 45.6820599 , "lon": 5.9355354 , "pop": 2311 },
 { "nom": "Tresserve" , "lat": 45.6728246 , "lon": 5.8955383 , "pop": 2909 },
 { "nom": "Allondaz" , "lat": 45.7065942 , "lon": 6.3732290 , "pop": 298 },
 { "nom": "Cevins" , "lat": 45.5881965 , "lon": 6.4558411 , "pop": 706 },
 { "nom": "Esserts-Blay" , "lat": 45.6139680 , "lon": 6.4353275 , "pop": 755 },
 { "nom": "La Bâthie" , "lat": 45.6248938 , "lon": 6.4487171 , "pop": 2176 },
 { "nom": "Mercury" , "lat": 45.6746932 , "lon": 6.3361931 , "pop": 3495 },
 { "nom": "Rognaix" , "lat": 45.5867643 , "lon": 6.4470863 , "pop": 479 },
 { "nom": "Saint-Paul-sur-Isère" , "lat": 45.5972750 , "lon": 6.4381599 , "pop": 543 },
 { "nom": "Tours-en-Savoie" , "lat": 45.6482990 , "lon": 6.4401340 , "pop": 945 },
 { "nom": "Albertville" , "lat": 45.6729446 , "lon": 6.3890648 , "pop": 19978 },
 { "nom": "Bonvillard" , "lat": 45.5859581 , "lon": 6.3051224 , "pop": 351 },
 { "nom": "Cléry" , "lat": 45.6451236 , "lon": 6.2940073 , "pop": 367 },
 { "nom": "Frontenex" , "lat": 45.6329367 , "lon": 6.3129330 , "pop": 1912 },
 { "nom": "Gilly-sur-Isère" , "lat": 45.6589781 , "lon": 6.3482952 , "pop": 3149 },
 { "nom": "Grésy-sur-Isère" , "lat": 45.5987164 , "lon": 6.2571430 , "pop": 1195 },
 { "nom": "Grignon" , "lat": 45.6473390 , "lon": 6.3712120 , "pop": 2099 },
 { "nom": "Montailleur" , "lat": 45.6162841 , "lon": 6.2789869 , "pop": 671 },
 { "nom": "Monthion" , "lat": 45.6307807 , "lon": 6.3591957 , "pop": 520 },
 { "nom": "Notre-Dame-des-Millières" , "lat": 45.6263344 , "lon": 6.3430595 , "pop": 988 },
 { "nom": "Plancherine" , "lat": 45.6644969 , "lon": 6.3179970 , "pop": 471 },
 { "nom": "Saint-Vital" , "lat": 45.6274148 , "lon": 6.2981701 , "pop": 767 },
 { "nom": "Sainte-Hélène-sur-Isère" , "lat": 45.6143282 , "lon": 6.3210011 , "pop": 1248 },
 { "nom": "Tournon" , "lat": 45.6436834 , "lon": 6.3175249 , "pop": 569 },
 { "nom": "Verrens-Arvey" , "lat": 45.6542988 , "lon": 6.3180828 , "pop": 969 },
 { "nom": "Aime-la-Plagne" , "lat": 45.5570234 , "lon": 6.6529083 , "pop": 4385 },
 { "nom": "Bourg-Saint-Maurice" , "lat": 45.6190616 , "lon": 6.7696381 , "pop": 7270 },
 { "nom": "La Plagne Tarentaise" , "lat": 45.5536024 , "lon": 6.6736794 , "pop": 3836 },
 { "nom": "Landry" , "lat": 45.5710894 , "lon": 6.7388248 , "pop": 813 },
 { "nom": "Les Chapelles" , "lat": 45.5898948 , "lon": 6.7291045 , "pop": 568 },
 { "nom": "Montvalezan" , "lat": 45.6120988 , "lon": 6.8459630 , "pop": 734 },
 { "nom": "Peisey-Nancroix" , "lat": 45.5469607 , "lon": 6.7550898 , "pop": 632 },
 { "nom": "Sainte-Foy-Tarentaise" , "lat": 45.5902828 , "lon": 6.8844795 , "pop": 686 },
 { "nom": "Séez" , "lat": 45.6229176 , "lon": 6.7999792 , "pop": 2459 },
 { "nom": "Tignes" , "lat": 45.4702992 , "lon": 6.9083834 , "pop": 1919 },
 { "nom": "Val-d'Isère" , "lat": 45.4492584 , "lon": 6.9790649 , "pop": 1567 },
 { "nom": "Villaroger" , "lat": 45.5902401 , "lon": 6.8752527 , "pop": 355 },
 { "nom": "Avressieux" , "lat": 45.5717527 , "lon": 5.6936860 , "pop": 544 },
 { "nom": "Billième" , "lat": 45.7194195 , "lon": 5.8094072 , "pop": 273 },
 { "nom": "Champagneux" , "lat": 45.6212068 , "lon": 5.6697607 , "pop": 675 },
 { "nom": "Chanaz" , "lat": 45.8067513 , "lon": 5.7916832 , "pop": 551 },
 { "nom": "Chindrieux" , "lat": 45.8192199 , "lon": 5.8482456 , "pop": 1531 },
 { "nom": "Conjux" , "lat": 45.7899063 , "lon": 5.8217239 , "pop": 218 },
 { "nom": "Gerbaix" , "lat": 45.6095898 , "lon": 5.7457638 , "pop": 461 },
 { "nom": "Jongieux" , "lat": 45.7372742 , "lon": 5.7989359 , "pop": 289 },
 { "nom": "La Balme" , "lat": 45.7051856 , "lon": 5.7182550 , "pop": 360 },
 { "nom": "La Chapelle-Saint-Martin" , "lat": 45.6467310 , "lon": 5.7587671 , "pop": 150 },
 { "nom": "Loisieux" , "lat": 45.6587752 , "lon": 5.7361078 , "pop": 236 },
 { "nom": "Lucey" , "lat": 45.7516497 , "lon": 5.7873487 , "pop": 286 },
 { "nom": "Marcieux" , "lat": 45.6119938 , "lon": 5.7652903 , "pop": 240 },
 { "nom": "Meyrieux-Trouet" , "lat": 45.6434458 , "lon": 5.7814264 , "pop": 354 },
 { "nom": "Motz" , "lat": 45.9196273 , "lon": 5.8473873 , "pop": 482 },
 { "nom": "Novalaise" , "lat": 45.5951177 , "lon": 5.7712555 , "pop": 2261 },
 { "nom": "Ontex" , "lat": 45.7548261 , "lon": 5.8217883 , "pop": 84 },
 { "nom": "Rochefort" , "lat": 45.5822338 , "lon": 5.7212591 , "pop": 253 },
 { "nom": "Ruffieux" , "lat": 45.8492402 , "lon": 5.8433533 , "pop": 819 },
 { "nom": "Saint-Genix-les-Villages" , "lat": 45.5990166 , "lon": 5.6331539 , "pop": 3095 },
 { "nom": "Saint-Jean-de-Chevelu" , "lat": 45.6906207 , "lon": 5.8185697 , "pop": 834 },
 { "nom": "Saint-Paul-sur-Yenne" , "lat": 45.6768868 , "lon": 5.7847309 , "pop": 747 },
 { "nom": "Saint-Pierre-d'Alvey" , "lat": 45.6303306 , "lon": 5.7410002 , "pop": 305 },
 { "nom": "Saint-Pierre-de-Curtille" , "lat": 45.7753312 , "lon": 5.8085060 , "pop": 472 },
 { "nom": "Sainte-Marie-d'Alvey" , "lat": 45.5945171 , "lon": 5.7204437 , "pop": 133 },
 { "nom": "Serrières-en-Chautagne" , "lat": 45.8827696 , "lon": 5.8433533 , "pop": 1156 },
 { "nom": "Traize" , "lat": 45.6702297 , "lon": 5.7458067 , "pop": 335 },
 { "nom": "Verthemex" , "lat": 45.6300628 , "lon": 5.7895160 , "pop": 244 },
 { "nom": "Vions" , "lat": 45.8239500 , "lon": 5.8062315 , "pop": 425 },
 { "nom": "Yenne" , "lat": 45.7037124 , "lon": 5.7585526 , "pop": 3026 },
 { "nom": "Sonnaz" , "lat": 45.6202116 , "lon": 5.9123611 , "pop": 2130 },
 { "nom": "Jacob-Bellecombette" , "lat": 45.5518594 , "lon": 5.9187555 , "pop": 4499 },
 { "nom": "Chambéry" , "lat": 45.5660375 , "lon": 5.9201717 , "pop": 59964 },
 { "nom": "Cognin" , "lat": 45.5596677 , "lon": 5.8942509 , "pop": 6954 },
 { "nom": "Aussois" , "lat": 45.2282945 , "lon": 6.7415714 , "pop": 676 },
 { "nom": "Avrieux" , "lat": 45.2153267 , "lon": 6.7217016 , "pop": 386 },
 { "nom": "Bessans" , "lat": 45.3204349 , "lon": 6.9935703 , "pop": 341 },
 { "nom": "Bonneval-sur-Arc" , "lat": 45.3718006 , "lon": 7.0467854 , "pop": 285 },
 { "nom": "Fourneaux" , "lat": 45.1908944 , "lon": 6.6517067 , "pop": 701 },
 { "nom": "Freney" , "lat": 45.1950378 , "lon": 6.6272879 , "pop": 116 },
 { "nom": "Modane" , "lat": 45.2019279 , "lon": 6.6720486 , "pop": 2849 },
 { "nom": "Orelle" , "lat": 45.2098720 , "lon": 6.5348911 , "pop": 324 },
 { "nom": "Saint-André" , "lat": 45.2013883 , "lon": 6.6187477 , "pop": 449 },
 { "nom": "Saint-Martin-d'Arc" , "lat": 45.2124721 , "lon": 6.4675570 , "pop": 298 },
 { "nom": "Saint-Martin-de-la-Porte" , "lat": 45.2398949 , "lon": 6.4454556 , "pop": 698 },
 { "nom": "Saint-Michel-de-Maurienne" , "lat": 45.2181382 , "lon": 6.4730072 , "pop": 2395 },
 { "nom": "Val-Cenis" , "lat": 45.2769957 , "lon": 6.8168449 , "pop": 2112 },
 { "nom": "Valloire" , "lat": 45.1649643 , "lon": 6.4298344 , "pop": 1064 },
 { "nom": "Valmeinier" , "lat": 45.1852989 , "lon": 6.4808607 , "pop": 593 },
 { "nom": "Villarodin-Bourget" , "lat": 45.2139233 , "lon": 6.6965961 , "pop": 499 },
 { "nom": "Apremont" , "lat": 45.5132593 , "lon": 5.9584522 , "pop": 979 },
 { "nom": "Arbin" , "lat": 45.5073601 , "lon": 6.0635090 , "pop": 841 },
 { "nom": "Arvillard" , "lat": 45.4413096 , "lon": 6.1208439 , "pop": 861 },
 { "nom": "Bourget-en-Huile" , "lat": 45.4861573 , "lon": 6.2064171 , "pop": 142 },
 { "nom": "Chignin" , "lat": 45.5239341 , "lon": 6.0101652 , "pop": 923 },
 { "nom": "Détrier" , "lat": 45.4462730 , "lon": 6.0959530 , "pop": 427 },
 { "nom": "La Chapelle-Blanche" , "lat": 45.4486817 , "lon": 6.0674572 , "pop": 596 },
 { "nom": "La Chavanne" , "lat": 45.4925608 , "lon": 6.0732937 , "pop": 720 },
 { "nom": "La Croix-de-la-Rochette" , "lat": 45.4636730 , "lon": 6.1176682 , "pop": 380 },
 { "nom": "La Table" , "lat": 45.4797183 , "lon": 6.1718273 , "pop": 445 },
 { "nom": "La Trinité" , "lat": 45.4965364 , "lon": 6.1462927 , "pop": 381 },
 { "nom": "Laissaud" , "lat": 45.4468150 , "lon": 6.0375023 , "pop": 778 },
 { "nom": "Le Pontet" , "lat": 45.4933477 , "lon": 6.2280035 , "pop": 133 },
 { "nom": "Le Verneil" , "lat": 45.4616912 , "lon": 6.1646175 , "pop": 88 },
 { "nom": "Les Mollettes" , "lat": 45.4625942 , "lon": 6.0591316 , "pop": 870 },
 { "nom": "Montmélian" , "lat": 45.5017055 , "lon": 6.0593891 , "pop": 4024 },
 { "nom": "Myans" , "lat": 45.5136757 , "lon": 5.9867764 , "pop": 1318 },
 { "nom": "Planaise" , "lat": 45.5026126 , "lon": 6.0905886 , "pop": 560 },
 { "nom": "Porte-de-Savoie" , "lat": 45.5015251 , "lon": 6.0017967 , "pop": 3974 },
 { "nom": "Presle" , "lat": 45.4544365 , "lon": 6.1383533 , "pop": 424 },
 { "nom": "Rotherens" , "lat": 45.4721350 , "lon": 6.1357784 , "pop": 371 },
 { "nom": "Saint-Pierre-de-Soucy" , "lat": 45.4953506 , "lon": 6.1071968 , "pop": 437 },
 { "nom": "Sainte-Hélène-du-Lac" , "lat": 45.4827273 , "lon": 6.0650110 , "pop": 855 },
 { "nom": "Valgelon-La Rochette" , "lat": 45.4571713 , "lon": 6.1165524 , "pop": 4207 },
 { "nom": "Villard-d'Héry" , "lat": 45.5135901 , "lon": 6.1385250 , "pop": 270 },
 { "nom": "Villard-Sallet" , "lat": 45.4863679 , "lon": 6.1392117 , "pop": 310 },
 { "nom": "Villaroux" , "lat": 45.4618718 , "lon": 6.0782719 , "pop": 192 },
 { "nom": "Bourdeau" , "lat": 45.6781021 , "lon": 5.8550262 , "pop": 572 },
 { "nom": "Drumettaz-Clarafond" , "lat": 45.6604779 , "lon": 5.9211159 , "pop": 3012 },
 { "nom": "La Chapelle-du-Mont-du-Chat" , "lat": 45.7056075 , "lon": 5.8536744 , "pop": 269 },
 { "nom": "La Motte-Servolex" , "lat": 45.5959857 , "lon": 5.8790588 , "pop": 12067 },
 { "nom": "Le Bourget-du-Lac" , "lat": 45.6472696 , "lon": 5.8598328 , "pop": 5216 },
 { "nom": "Méry" , "lat": 45.6429034 , "lon": 5.9378958 , "pop": 2150 },
 { "nom": "Viviers-du-Lac" , "lat": 45.6483496 , "lon": 5.9056664 , "pop": 2355 },
 { "nom": "Voglans" , "lat": 45.6323365 , "lon": 5.8968258 , "pop": 2021 },
 { "nom": "Bozel" , "lat": 45.4423635 , "lon": 6.6467714 , "pop": 2098 },
 { "nom": "Brides-les-Bains" , "lat": 45.4522389 , "lon": 6.5665197 , "pop": 442 },
 { "nom": "Champagny-en-Vanoise" , "lat": 45.4550687 , "lon": 6.6948366 , "pop": 540 },
 { "nom": "Courchevel" , "lat": 45.4139273 , "lon": 6.6361713 , "pop": 2290 },
 { "nom": "Feissons-sur-Salins" , "lat": 45.4702945 , "lon": 6.5599537 , "pop": 175 },
 { "nom": "Grand-Aigueblanche" , "lat": 45.5009235 , "lon": 6.5036488 , "pop": 3780 },
 { "nom": "Hautecour" , "lat": 45.5058008 , "lon": 6.5436029 , "pop": 298 },
 { "nom": "La Léchère" , "lat": 45.5233582 , "lon": 6.4892292 , "pop": 2538 },
 { "nom": "Les Allues" , "lat": 45.4310963 , "lon": 6.5569496 , "pop": 1736 },
 { "nom": "Les Avanchers-Valmorel" , "lat": 45.4782740 , "lon": 6.4560556 , "pop": 724 },
 { "nom": "Les Belleville" , "lat": 45.3799701 , "lon": 6.5043783 , "pop": 3498 },
 { "nom": "Montagny" , "lat": 45.4557912 , "lon": 6.5919256 , "pop": 658 },
 { "nom": "Moûtiers" , "lat": 45.4848636 , "lon": 6.5314150 , "pop": 3487 },
 { "nom": "Notre-Dame-du-Pré" , "lat": 45.5116354 , "lon": 6.5946293 , "pop": 258 },
 { "nom": "Planay" , "lat": 45.4229563 , "lon": 6.6991496 , "pop": 442 },
 { "nom": "Pralognan-la-Vanoise" , "lat": 45.3817439 , "lon": 6.7210579 , "pop": 689 },
 { "nom": "Saint-Marcel" , "lat": 45.5123572 , "lon": 6.5668631 , "pop": 611 },
 { "nom": "Salins-Fontaine" , "lat": 45.4740262 , "lon": 6.5291405 , "pop": 941 },
 { "nom": "Aiguebelette-le-Lac" , "lat": 45.5378534 , "lon": 5.8149433 , "pop": 255 },
 { "nom": "Attignat-Oncin" , "lat": 45.5082022 , "lon": 5.7737446 , "pop": 574 },
 { "nom": "Ayn" , "lat": 45.5717076 , "lon": 5.7499051 , "pop": 392 },
 { "nom": "Belmont-Tramonet" , "lat": 45.5590287 , "lon": 5.6815839 , "pop": 505 },
 { "nom": "Corbel" , "lat": 45.4293114 , "lon": 5.8244491 , "pop": 161 },
 { "nom": "Domessin" , "lat": 45.5379159 , "lon": 5.7091355 , "pop": 2005 },
 { "nom": "Dullin" , "lat": 45.5532117 , "lon": 5.7444334 , "pop": 497 },
 { "nom": "Entremont-le-Vieux" , "lat": 45.4520884 , "lon": 5.8838224 , "pop": 648 },
 { "nom": "La Bauche" , "lat": 45.4822482 , "lon": 5.7658482 , "pop": 542 },
 { "nom": "La Bridoire" , "lat": 45.5257635 , "lon": 5.7407856 , "pop": 1202 },
 { "nom": "Le Pont-de-Beauvoisin" , "lat": 45.5362255 , "lon": 5.6722069 , "pop": 2124 },
 { "nom": "Lépin-le-Lac" , "lat": 45.5375528 , "lon": 5.7931423 , "pop": 466 },
 { "nom": "Les Échelles" , "lat": 45.4365218 , "lon": 5.7537889 , "pop": 1286 },
 { "nom": "Montagnole" , "lat": 45.5372522 , "lon": 5.9079838 , "pop": 1038 },
 { "nom": "Nances" , "lat": 45.5874898 , "lon": 5.7946444 , "pop": 554 },
 { "nom": "Saint-Alban-de-Montbel" , "lat": 45.5514687 , "lon": 5.7812548 , "pop": 688 },
 { "nom": "Saint-Béron" , "lat": 45.5020110 , "lon": 5.7285118 , "pop": 1713 },
 { "nom": "Saint-Cassin" , "lat": 45.5377933 , "lon": 5.8933496 , "pop": 1046 },
 { "nom": "Saint-Christophe" , "lat": 45.4504326 , "lon": 5.7766628 , "pop": 545 },
 { "nom": "Saint-Franc" , "lat": 45.4915149 , "lon": 5.7460213 , "pop": 155 },
 { "nom": "Saint-Jean-de-Couz" , "lat": 45.4669585 , "lon": 5.8192778 , "pop": 304 },
 { "nom": "Saint-Pierre-d'Entremont" , "lat": 45.4178656 , "lon": 5.8550262 , "pop": 383 },
 { "nom": "Saint-Pierre-de-Genebroz" , "lat": 45.4508564 , "lon": 5.7536602 , "pop": 334 },
 { "nom": "Saint-Sulpice" , "lat": 45.5646000 , "lon": 5.8455849 , "pop": 821 },
 { "nom": "Saint-Thibaud-de-Couz" , "lat": 45.5019208 , "lon": 5.8442974 , "pop": 1107 },
 { "nom": "Verel-de-Montbel" , "lat": 45.5536926 , "lon": 5.7215166 , "pop": 341 },
 { "nom": "Vimines" , "lat": 45.5463897 , "lon": 5.8652830 , "pop": 2372 },
 { "nom": "Barberaz" , "lat": 45.5578047 , "lon": 5.9413719 , "pop": 5306 },
 { "nom": "Challes-les-Eaux" , "lat": 45.5483686 , "lon": 5.9833431 , "pop": 5630 },
 { "nom": "La Ravoire" , "lat": 45.5588771 , "lon": 5.9638596 , "pop": 9332 },
 { "nom": "Saint-Baldoph" , "lat": 45.5338206 , "lon": 5.9552765 , "pop": 2949 },
 { "nom": "Saint-Jeoire-Prieuré" , "lat": 45.5345928 , "lon": 5.9923553 , "pop": 1999 },
 { "nom": "Aillon-le-Jeune" , "lat": 45.6186854 , "lon": 6.0804605 , "pop": 430 },
 { "nom": "Aillon-le-Vieux" , "lat": 45.6514836 , "lon": 6.0950518 , "pop": 221 },
 { "nom": "Arith" , "lat": 45.7137564 , "lon": 6.0865974 , "pop": 456 },
 { "nom": "Barby" , "lat": 45.5706642 , "lon": 5.9775066 , "pop": 3772 },
 { "nom": "Bassens" , "lat": 45.5816584 , "lon": 5.9405136 , "pop": 5175 },
 { "nom": "Bellecombe-en-Bauges" , "lat": 45.7381428 , "lon": 6.1412287 , "pop": 793 },
 { "nom": "Curienne" , "lat": 45.5664628 , "lon": 6.0090065 , "pop": 704 },
 { "nom": "Doucy-en-Bauges" , "lat": 45.6865435 , "lon": 6.1691022 , "pop": 94 },
 { "nom": "École" , "lat": 45.6503460 , "lon": 6.1664414 , "pop": 305 },
 { "nom": "Jarsy" , "lat": 45.6567585 , "lon": 6.1784363 , "pop": 255 },
 { "nom": "La Compôte" , "lat": 45.6705549 , "lon": 6.1612701 , "pop": 273 },
 { "nom": "La Motte-en-Bauges" , "lat": 45.7010196 , "lon": 6.1265945 , "pop": 539 },
 { "nom": "La Thuile" , "lat": 45.5332264 , "lon": 6.0549259 , "pop": 353 },
 { "nom": "Le Châtelard" , "lat": 45.6882800 , "lon": 6.1343193 , "pop": 686 },
 { "nom": "Le Noyer" , "lat": 45.6791991 , "lon": 6.0605586 , "pop": 230 },
 { "nom": "Les Déserts" , "lat": 45.6213892 , "lon": 6.0105729 , "pop": 845 },
 { "nom": "Lescheraines" , "lat": 45.7083623 , "lon": 6.1056948 , "pop": 803 },
 { "nom": "Puygros" , "lat": 45.5674843 , "lon": 6.0340691 , "pop": 406 },
 { "nom": "Saint-Alban-Leysse" , "lat": 45.5794958 , "lon": 5.9557056 , "pop": 6734 },
 { "nom": "Saint-François-de-Sales" , "lat": 45.6834705 , "lon": 6.0590029 , "pop": 190 },
 { "nom": "Saint-Jean-d'Arvey" , "lat": 45.5859835 , "lon": 5.9932137 , "pop": 1721 },
 { "nom": "Sainte-Reine" , "lat": 45.6108316 , "lon": 6.1388361 , "pop": 177 },
 { "nom": "Thoiry" , "lat": 45.5858554 , "lon": 6.0306787 , "pop": 456 },
 { "nom": "Verel-Pragondran" , "lat": 45.6060425 , "lon": 5.9472084 , "pop": 640 },
 { "nom": "Albiez-le-Jeune" , "lat": 45.2436354 , "lon": 6.3517284 , "pop": 139 },
 { "nom": "Albiez-Montrond" , "lat": 45.2173857 , "lon": 6.3408709 , "pop": 350 },
 { "nom": "Fontcouverte-la-Toussuire" , "lat": 45.2469273 , "lon": 6.3017106 , "pop": 473 },
 { "nom": "Jarrier" , "lat": 45.2800027 , "lon": 6.3169026 , "pop": 506 },
 { "nom": "La Chambre" , "lat": 45.3582275 , "lon": 6.3012600 , "pop": 1221 },
 { "nom": "La Chapelle" , "lat": 45.4198665 , "lon": 6.2773561 , "pop": 326 },
 { "nom": "La Tour-en-Maurienne" , "lat": 45.2986091 , "lon": 6.3618565 , "pop": 1087 },
 { "nom": "Les Chavannes-en-Maurienne" , "lat": 45.3927497 , "lon": 6.2834501 , "pop": 220 },
 { "nom": "Montricher-Albanne" , "lat": 45.2350946 , "lon": 6.4143419 , "pop": 476 },
 { "nom": "Montvernier" , "lat": 45.3209479 , "lon": 6.3442183 , "pop": 240 },
 { "nom": "Notre-Dame-du-Cruet" , "lat": 45.3711674 , "lon": 6.3123322 , "pop": 222 },
 { "nom": "Saint François Longchamp" , "lat": 45.4082102 , "lon": 6.3470507 , "pop": 433 },
 { "nom": "Saint-Alban-des-Villards" , "lat": 45.3093618 , "lon": 6.2486672 , "pop": 92 },
 { "nom": "Saint-Avre" , "lat": 45.3524421 , "lon": 6.3096714 , "pop": 925 },
 { "nom": "Saint-Colomban-des-Villards" , "lat": 45.2935421 , "lon": 6.2259436 , "pop": 143 },
 { "nom": "Saint-Étienne-de-Cuines" , "lat": 45.3422429 , "lon": 6.2922478 , "pop": 1186 },
 { "nom": "Saint-Jean-d'Arves" , "lat": 45.2121221 , "lon": 6.2674427 , "pop": 273 },
 { "nom": "Saint-Jean-de-Maurienne" , "lat": 45.2748770 , "lon": 6.3476086 , "pop": 7524 },
 { "nom": "Saint-Julien-Mont-Denis" , "lat": 45.2557875 , "lon": 6.4042568 , "pop": 1506 },
 { "nom": "Saint-Martin-sur-la-Chambre" , "lat": 45.3649264 , "lon": 6.3162804 , "pop": 525 },
 { "nom": "Saint-Pancrace" , "lat": 45.2694153 , "lon": 6.3283396 , "pop": 307 },
 { "nom": "Saint-Rémy-de-Maurienne" , "lat": 45.3922929 , "lon": 6.2646103 , "pop": 1289 },
 { "nom": "Saint-Sorlin-d'Arves" , "lat": 45.2212820 , "lon": 6.2287760 , "pop": 347 },
 { "nom": "Sainte-Marie-de-Cuines" , "lat": 45.3395630 , "lon": 6.3018179 , "pop": 847 },
 { "nom": "Villarembert" , "lat": 45.2460336 , "lon": 6.2792873 , "pop": 253 },
 { "nom": "Villargondran" , "lat": 45.2607767 , "lon": 6.3756323 , "pop": 790 },
 { "nom": "Aiton" , "lat": 45.5608743 , "lon": 6.2562847 , "pop": 1874 },
 { "nom": "Argentine" , "lat": 45.4948519 , "lon": 6.3136625 , "pop": 959 },
 { "nom": "Betton-Bettonet" , "lat": 45.5297969 , "lon": 6.1866331 , "pop": 306 },
 { "nom": "Bonvillaret" , "lat": 45.5625142 , "lon": 6.2988353 , "pop": 154 },
 { "nom": "Bourgneuf" , "lat": 45.5517092 , "lon": 6.2142706 , "pop": 656 },
 { "nom": "Chamousset" , "lat": 45.5563623 , "lon": 6.1992931 , "pop": 621 },
 { "nom": "Chamoux-sur-Gelon" , "lat": 45.5340057 , "lon": 6.2149572 , "pop": 966 },
 { "nom": "Champ-Laurent" , "lat": 45.5078460 , "lon": 6.2147427 , "pop": 31 },
 { "nom": "Châteauneuf" , "lat": 45.5484334 , "lon": 6.1725569 , "pop": 901 },
 { "nom": "Coise-Saint-Jean-Pied-Gauthier" , "lat": 45.5261590 , "lon": 6.1418724 , "pop": 1305 },
 { "nom": "Cruet" , "lat": 45.5275421 , "lon": 6.0911894 , "pop": 1056 },
 { "nom": "Épierre" , "lat": 45.4532023 , "lon": 6.2950373 , "pop": 757 },
 { "nom": "Fréterive" , "lat": 45.5844865 , "lon": 6.2086916 , "pop": 640 },
 { "nom": "Hauteville" , "lat": 45.5297067 , "lon": 6.1732435 , "pop": 350 },
 { "nom": "Montendry" , "lat": 45.5253646 , "lon": 6.2410283 , "pop": 49 },
 { "nom": "Montgilbert" , "lat": 45.5496829 , "lon": 6.2849307 , "pop": 114 },
 { "nom": "Montsapey" , "lat": 45.5238312 , "lon": 6.3393259 , "pop": 85 },
 { "nom": "Saint-Alban-d'Hurtières" , "lat": 45.4826972 , "lon": 6.2758112 , "pop": 404 },
 { "nom": "Saint-Georges-d'Hurtières" , "lat": 45.5017704 , "lon": 6.2865829 , "pop": 410 },
 { "nom": "Saint-Jean-de-la-Porte" , "lat": 45.5560064 , "lon": 6.1286974 , "pop": 989 },
 { "nom": "Saint-Léger" , "lat": 45.4371843 , "lon": 6.2801027 , "pop": 257 },
 { "nom": "Saint-Pierre-d'Albigny" , "lat": 45.5691620 , "lon": 6.1546612 , "pop": 4217 },
 { "nom": "Saint-Pierre-de-Belleville" , "lat": 45.4707807 , "lon": 6.2828922 , "pop": 184 },
 { "nom": "Val-d'Arc" , "lat": 45.5443412 , "lon": 6.3067532 , "pop": 2026 },
 { "nom": "Villard-Léger" , "lat": 45.5150637 , "lon": 6.1853456 , "pop": 433 },
 { "nom": "Beaufort" , "lat": 45.7177116 , "lon": 6.5748453 , "pop": 1989 },
 { "nom": "Césarches" , "lat": 45.6998807 , "lon": 6.4122820 , "pop": 441 },
 { "nom": "Cohennoz" , "lat": 45.7575060 , "lon": 6.4816332 , "pop": 137 },
 { "nom": "Crest-Voland" , "lat": 45.7920608 , "lon": 6.5018463 , "pop": 346 },
 { "nom": "Flumet" , "lat": 45.8188956 , "lon": 6.5146780 , "pop": 799 },
 { "nom": "Hauteluce" , "lat": 45.7495535 , "lon": 6.5840292 , "pop": 734 },
 { "nom": "La Giettaz" , "lat": 45.8643381 , "lon": 6.4949323 , "pop": 381 },
 { "nom": "Marthod" , "lat": 45.7266641 , "lon": 6.4036466 , "pop": 1346 },
 { "nom": "Notre-Dame-de-Bellecombe" , "lat": 45.8083966 , "lon": 6.5172529 , "pop": 463 },
 { "nom": "Pallud" , "lat": 45.6863313 , "lon": 6.3946009 , "pop": 784 },
 { "nom": "Queige" , "lat": 45.7202884 , "lon": 6.4599609 , "pop": 904 },
 { "nom": "Saint-Nicolas-la-Chapelle" , "lat": 45.8086910 , "lon": 6.5012455 , "pop": 502 },
 { "nom": "Thénésol" , "lat": 45.7131271 , "lon": 6.3945580 , "pop": 326 },
 { "nom": "Ugine" , "lat": 45.7497884 , "lon": 6.4171314 , "pop": 7154 },
 { "nom": "Venthon" , "lat": 45.6880655 , "lon": 6.4124107 , "pop": 606 },
 { "nom": "Villard-sur-Doron" , "lat": 45.7264902 , "lon": 6.5302134 , "pop": 702 }
]