[
{ "nom": "Aizenay", "lat": 46.739844, "lon": -1.6077026, "pop": 10365 },
{ "nom": "Angles", "lat": 46.4085614, "lon": -1.4023557, "pop": 3115 },
{ "nom": "Antigny", "lat": 46.6213369, "lon": -0.7696809, "pop": 1027 },
{ "nom": "Apremont", "lat": 46.749352, "lon": -1.741805, "pop": 2108 },
{ "nom": "Aubigny-Les Clouzeaux", "lat": 46.5970227, "lon": -1.4529163, "pop": 7191 },
{ "nom": "Auchay-sur-Vendée", "lat": 46.442039, "lon": -0.8678329, "pop": 1122 },
{ "nom": "Avrillé", "lat": 46.469639, "lon": -1.495304, "pop": 1403 },
{ "nom": "Barbâtre", "lat": 46.9425669, "lon": -2.178589, "pop": 1824 },
{ "nom": "Bazoges-en-Paillers", "lat": 46.90805, "lon": -1.133655, "pop": 1555 },
{ "nom": "Bazoges-en-Pareds", "lat": 46.656807, "lon": -0.91652, "pop": 1184 },
{ "nom": "Beaufou", "lat": 46.823817, "lon": -1.528842, "pop": 1683 },
{ "nom": "Beaulieu-sous-la-Roche", "lat": 46.6762497, "lon": -1.6101488, "pop": 2421 },
{ "nom": "Beaurepaire", "lat": 46.9070047, "lon": -1.0897064, "pop": 2385 },
{ "nom": "Beauvoir-sur-Mer", "lat": 46.9150542, "lon": -2.0403845, "pop": 4035 },
{ "nom": "Bellevigny", "lat": 46.7874024, "lon": -1.4238388, "pop": 6240 },
{ "nom": "Benet", "lat": 46.3670282, "lon": -0.5977398, "pop": 4089 },
{ "nom": "Bessay", "lat": 46.537776, "lon": -1.153323, "pop": 456 },
{ "nom": "Bois-de-Céné", "lat": 46.937625, "lon": -1.889203, "pop": 2256 },
{ "nom": "Bouillé-Courdault", "lat": 46.389159, "lon": -0.68681, "pop": 595 },
{ "nom": "Bouin", "lat": 46.974469, "lon": -1.999141, "pop": 2205 },
{ "nom": "Bourneau", "lat": 46.539793, "lon": -0.816868, "pop": 710 },
{ "nom": "Bournezeau", "lat": 46.635629, "lon": -1.171011, "pop": 3452 },
{ "nom": "Brem-sur-Mer", "lat": 46.6060512, "lon": -1.8351971, "pop": 2993 },
{ "nom": "Bretignolles-sur-Mer", "lat": 46.627494, "lon": -1.857387, "pop": 5344 },
{ "nom": "Chaillé-les-Marais", "lat": 46.394046, "lon": -1.020419, "pop": 1924 },
{ "nom": "Challans", "lat": 46.8450184, "lon": -1.8801062, "pop": 22943 },
{ "nom": "Champagné-les-Marais", "lat": 46.380691, "lon": -1.123594, "pop": 1824 },
{ "nom": "Chantonnay", "lat": 46.6876243, "lon": -1.0513457, "pop": 8557 },
{ "nom": "Chanverrie", "lat": 46.9627214, "lon": -0.9966901, "pop": 5653 },
{ "nom": "Chasnais", "lat": 46.458708, "lon": -1.2298309, "pop": 818 },
{ "nom": "Château-Guibert", "lat": 46.579442, "lon": -1.237102, "pop": 1584 },
{ "nom": "Châteauneuf", "lat": 46.9177224, "lon": -1.9125105, "pop": 1140 },
{ "nom": "Chauché", "lat": 46.829633, "lon": -1.269648, "pop": 2613 },
{ "nom": "Chavagnes-en-Paillers", "lat": 46.893249, "lon": -1.250872, "pop": 3726 },
{ "nom": "Chavagnes-les-Redoux", "lat": 46.716118, "lon": -0.919725, "pop": 857 },
{ "nom": "Cheffois", "lat": 46.667473, "lon": -0.789818, "pop": 1009 },
{ "nom": "Coëx", "lat": 46.6973946, "lon": -1.7631906, "pop": 3428 },
{ "nom": "Commequiers", "lat": 46.7623433, "lon": -1.836715, "pop": 3735 },
{ "nom": "Corpe", "lat": 46.504243, "lon": -1.172215, "pop": 1024 },
{ "nom": "Cugand-la-Bernardière", "lat": 47.0637777, "lon": -1.255036, "pop": 5711 },
{ "nom": "Curzon", "lat": 46.4523579, "lon": -1.303714, "pop": 481 },
{ "nom": "Damvix", "lat": 46.315286, "lon": -0.734657, "pop": 733 },
{ "nom": "Doix lès Fontaines", "lat": 46.391502, "lon": -0.8061538, "pop": 1779 },
{ "nom": "Dompierre-sur-Yon", "lat": 46.7352113, "lon": -1.3894933, "pop": 4625 },
{ "nom": "Essarts-en-Bocage", "lat": 46.7741132, "lon": -1.2304962, "pop": 6851 },
{ "nom": "Falleron", "lat": 46.881229, "lon": -1.701122, "pop": 1725 },
{ "nom": "Faymoreau", "lat": 46.537932, "lon": -0.627629, "pop": 209 },
{ "nom": "Fontenay-le-Comte", "lat": 46.466874, "lon": -0.8083564, "pop": 14059 },
{ "nom": "Fougeré", "lat": 46.659142, "lon": -1.233149, "pop": 1240 },
{ "nom": "Foussais-Payré", "lat": 46.529682, "lon": -0.682556, "pop": 1168 },
{ "nom": "Froidfond", "lat": 46.869079, "lon": -1.758649, "pop": 2208 },
{ "nom": "Givrand", "lat": 46.6713108, "lon": -1.8840578, "pop": 2205 },
{ "nom": "Grand'Landes", "lat": 46.8213231, "lon": -1.6507812, "pop": 725 },
{ "nom": "Grosbreuil", "lat": 46.540023, "lon": -1.616176, "pop": 2221 },
{ "nom": "Grues", "lat": 46.398372, "lon": -1.303717, "pop": 927 },
{ "nom": "Jard-sur-Mer", "lat": 46.4124185, "lon": -1.5770926, "pop": 3235 },
{ "nom": "La Barre-de-Monts", "lat": 46.8848574, "lon": -2.1179707, "pop": 2367 },
{ "nom": "La Boissière-de-Montaigu", "lat": 46.950756, "lon": -1.190198, "pop": 2311 },
{ "nom": "La Boissière-des-Landes", "lat": 46.564599, "lon": -1.461918, "pop": 1464 },
{ "nom": "La Bretonnière-la-Claye", "lat": 46.4803979, "lon": -1.2666136, "pop": 586 },
{ "nom": "La Bruffière", "lat": 47.0130356, "lon": -1.196947, "pop": 3987 },
{ "nom": "La Caillère-Saint-Hilaire", "lat": 46.6329484, "lon": -0.9336831, "pop": 1100 },
{ "nom": "La Chaize-Giraud", "lat": 46.648446, "lon": -1.817895, "pop": 1124 },
{ "nom": "La Chaize-le-Vicomte", "lat": 46.6728093, "lon": -1.2924422, "pop": 3948 },
{ "nom": "La Chapelle-Hermier", "lat": 46.6829449, "lon": -1.722695, "pop": 1098 },
{ "nom": "La Chapelle-Palluau", "lat": 46.784087, "lon": -1.622234, "pop": 1124 },
{ "nom": "La Chapelle-Thémer", "lat": 46.55929, "lon": -0.956274, "pop": 393 },
{ "nom": "La Châtaigneraie", "lat": 46.6500319, "lon": -0.7405604, "pop": 2600 },
{ "nom": "La Copechagnière", "lat": 46.8495459, "lon": -1.346816, "pop": 1046 },
{ "nom": "La Couture", "lat": 46.518194, "lon": -1.2678339, "pop": 231 },
{ "nom": "La Ferrière", "lat": 46.7147697, "lon": -1.3127554, "pop": 5454 },
{ "nom": "La Garnache", "lat": 46.891401, "lon": -1.830615, "pop": 5515 },
{ "nom": "La Gaubretière", "lat": 46.943135, "lon": -1.064129, "pop": 3225 },
{ "nom": "La Genétouze", "lat": 46.7250544, "lon": -1.5118158, "pop": 2011 },
{ "nom": "La Guérinière", "lat": 46.9679015, "lon": -2.2315087, "pop": 1377 },
{ "nom": "La Jaudonnière", "lat": 46.643034, "lon": -0.963059, "pop": 670 },
{ "nom": "La Jonchère", "lat": 46.439487, "lon": -1.374689, "pop": 498 },
{ "nom": "La Meilleraie-Tillay", "lat": 46.741536, "lon": -0.847544, "pop": 1485 },
{ "nom": "La Merlatière", "lat": 46.7677509, "lon": -1.301517, "pop": 1009 },
{ "nom": "La Rabatelière", "lat": 46.8622602, "lon": -1.2621583, "pop": 1024 },
{ "nom": "La Réorthe", "lat": 46.606791, "lon": -1.050221, "pop": 1161 },
{ "nom": "La Roche-sur-Yon", "lat": 46.6714317, "lon": -1.4180749, "pop": 54849 },
{ "nom": "La Taillée", "lat": 46.379178, "lon": -0.929997, "pop": 550 },
{ "nom": "La Tranche-sur-Mer", "lat": 46.3438888, "lon": -1.4389109, "pop": 3136 },
{ "nom": "L'Aiguillon-la-Presqu'île", "lat": 46.3327446, "lon": -1.3217252, "pop": 2845 },
{ "nom": "L'Aiguillon-sur-Vie", "lat": 46.672861, "lon": -1.829273, "pop": 2277 },
{ "nom": "Lairoux", "lat": 46.447093, "lon": -1.267126, "pop": 602 },
{ "nom": "Landeronde", "lat": 46.658886, "lon": -1.571227, "pop": 2303 },
{ "nom": "Landevieille", "lat": 46.639704, "lon": -1.805829, "pop": 1519 },
{ "nom": "Le Bernard", "lat": 46.438604, "lon": -1.468605, "pop": 1319 },
{ "nom": "Le Boupère", "lat": 46.794454, "lon": -0.926723, "pop": 3151 },
{ "nom": "Le Champ-Saint-Père", "lat": 46.507106, "lon": -1.346824, "pop": 2135 },
{ "nom": "Le Fenouiller", "lat": 46.7176092, "lon": -1.9043821, "pop": 4978 },
{ "nom": "Le Girouard", "lat": 46.568397, "lon": -1.599099, "pop": 1156 },
{ "nom": "Le Givre", "lat": 46.467376, "lon": -1.396045, "pop": 535 },
{ "nom": "Le Gué-de-Velluire", "lat": 46.37239, "lon": -0.922448, "pop": 525 },
{ "nom": "Le Langon", "lat": 46.437328, "lon": -0.951341, "pop": 1045 },
{ "nom": "Le Mazeau", "lat": 46.336058, "lon": -0.674214, "pop": 464 },
{ "nom": "Le Perrier", "lat": 46.819929, "lon": -1.9944, "pop": 2280 },
{ "nom": "Le Poiré-sur-Vie", "lat": 46.767746, "lon": -1.508806, "pop": 8649 },
{ "nom": "Le Tablier", "lat": 46.573784, "lon": -1.342948, "pop": 765 },
{ "nom": "L'Épine", "lat": 46.9788236, "lon": -2.2656773, "pop": 1636 },
{ "nom": "Les Achards", "lat": 46.6182096, "lon": -1.6592056, "pop": 5518 },
{ "nom": "Les Brouzils", "lat": 46.887364, "lon": -1.320963, "pop": 2938 },
{ "nom": "Les Epesses", "lat": 46.884536, "lon": -0.899612, "pop": 2983 },
{ "nom": "Les Herbiers", "lat": 46.8634679, "lon": -1.0124175, "pop": 16521 },
{ "nom": "Les Landes-Genusson", "lat": 46.964732, "lon": -1.119188, "pop": 2638 },
{ "nom": "Les Lucs-sur-Boulogne", "lat": 46.844355, "lon": -1.496408, "pop": 3701 },
{ "nom": "Les Magnils-Reigniers", "lat": 46.478464, "lon": -1.219565, "pop": 1486 },
{ "nom": "Les Pineaux", "lat": 46.595045, "lon": -1.181968, "pop": 688 },
{ "nom": "Les Sables-d'Olonne", "lat": 46.5011991, "lon": -1.7781025, "pop": 49603 },
{ "nom": "Les Velluire-sur-Vendée", "lat": 46.4109826, "lon": -0.8957663, "pop": 1358 },
{ "nom": "L'Herbergement", "lat": 46.9088964, "lon": -1.376475, "pop": 3482 },
{ "nom": "L'Hermenault", "lat": 46.520203, "lon": -0.901279, "pop": 914 },
{ "nom": "Liez", "lat": 46.370254, "lon": -0.702915, "pop": 302 },
{ "nom": "L'Île-d'Elle", "lat": 46.331432, "lon": -0.949437, "pop": 1502 },
{ "nom": "L'Île-d'Olonne", "lat": 46.562407, "lon": -1.780664, "pop": 2802 },
{ "nom": "L'Île-d'Yeu", "lat": 46.7093529, "lon": -2.3466244, "pop": 4883 },
{ "nom": "Loge-Fougereuse", "lat": 46.613119, "lon": -0.6916639, "pop": 373 },
{ "nom": "L'Oie", "lat": 46.7981722, "lon": -1.129783, "pop": 1250 },
{ "nom": "Longèves", "lat": 46.22955, "lon": -0.99015, "pop": 1369 },
{ "nom": "Longeville-sur-Mer", "lat": 46.4249178, "lon": -1.4904023, "pop": 2625 },
{ "nom": "L'Orbrie", "lat": 46.487861, "lon": -0.784942, "pop": 808 },
{ "nom": "Luçon", "lat": 46.4549936, "lon": -1.1667529, "pop": 9417 },
{ "nom": "Maché", "lat": 46.754755, "lon": -1.685472, "pop": 1831 },
{ "nom": "Maillé", "lat": 46.342709, "lon": -0.792044, "pop": 759 },
{ "nom": "Maillezais", "lat": 46.3718519, "lon": -0.739466, "pop": 890 },
{ "nom": "Mallièvre", "lat": 46.911287, "lon": -0.864615, "pop": 251 },
{ "nom": "Mareuil-sur-Lay-Dissais", "lat": 46.5338143, "lon": -1.2233481, "pop": 2808 },
{ "nom": "Marillet", "lat": 46.5688699, "lon": -0.634454, "pop": 123 },
{ "nom": "Marsais-Sainte-Radégonde", "lat": 46.5358774, "lon": -0.87852, "pop": 553 },
{ "nom": "Martinet", "lat": 46.676299, "lon": -1.679633, "pop": 1229 },
{ "nom": "Menomblet", "lat": 46.731527, "lon": -0.712131, "pop": 685 },
{ "nom": "Mervent", "lat": 46.523825, "lon": -0.7571679, "pop": 1063 },
{ "nom": "Mesnard-la-Barotière", "lat": 46.858922, "lon": -1.099784, "pop": 1558 },
{ "nom": "Monsireigne", "lat": 46.744052, "lon": -0.948577, "pop": 999 },
{ "nom": "Montaigu-Vendée", "lat": 46.977639, "lon": -1.3141608, "pop": 21134 },
{ "nom": "Montournais", "lat": 46.741547, "lon": -0.765321, "pop": 1630 },
{ "nom": "Montreuil", "lat": 46.407775, "lon": -0.8367289, "pop": 818 },
{ "nom": "Montréverd", "lat": 46.9073728, "lon": -1.450657, "pop": 3857 },
{ "nom": "Moreilles", "lat": 46.420139, "lon": -1.083898, "pop": 407 },
{ "nom": "Mortagne-sur-Sèvre", "lat": 46.9930631, "lon": -0.9509032, "pop": 6057 },
{ "nom": "Mouchamps", "lat": 46.7802532, "lon": -1.0625469, "pop": 3015 },
{ "nom": "Mouilleron-le-Captif", "lat": 46.7200799, "lon": -1.4591917, "pop": 5273 },
{ "nom": "Mouilleron-Saint-Germain", "lat": 46.6758927, "lon": -0.8477964, "pop": 1744 },
{ "nom": "Moutiers-les-Mauxfaits", "lat": 46.49132, "lon": -1.426528, "pop": 2385 },
{ "nom": "Moutiers-sur-le-Lay", "lat": 46.555442, "lon": -1.158144, "pop": 843 },
{ "nom": "Mouzeuil-Saint-Martin", "lat": 46.465235, "lon": -0.983798, "pop": 1233 },
{ "nom": "Nalliers", "lat": 46.470139, "lon": -1.030445, "pop": 2389 },
{ "nom": "Nesmy", "lat": 46.592606, "lon": -1.402733, "pop": 3100 },
{ "nom": "Nieul-le-Dolent", "lat": 46.574025, "lon": -1.508986, "pop": 2571 },
{ "nom": "Noirmoutier-en-l'Île", "lat": 47.0012527, "lon": -2.2472474, "pop": 4505 },
{ "nom": "Notre-Dame-de-Monts", "lat": 46.830693, "lon": -2.1307383, "pop": 2420 },
{ "nom": "Notre-Dame-de-Riez", "lat": 46.745319, "lon": -1.905941, "pop": 2213 },
{ "nom": "Palluau", "lat": 46.804687, "lon": -1.618879, "pop": 1128 },
{ "nom": "Péault", "lat": 46.5027789, "lon": -1.221643, "pop": 629 },
{ "nom": "Petosse", "lat": 46.481003, "lon": -0.910215, "pop": 688 },
{ "nom": "Pissotte", "lat": 46.4969789, "lon": -0.8084084, "pop": 1132 },
{ "nom": "Poiroux", "lat": 46.504654, "lon": -1.534317, "pop": 1246 },
{ "nom": "Pouillé", "lat": 46.5071654, "lon": -0.9494086, "pop": 630 },
{ "nom": "Pouzauges", "lat": 46.782648, "lon": -0.837243, "pop": 5668 },
{ "nom": "Puy-de-Serre", "lat": 46.561834, "lon": -0.66452, "pop": 311 },
{ "nom": "Puyravault", "lat": 46.378715, "lon": -1.0814729, "pop": 642 },
{ "nom": "Réaumur", "lat": 46.720179, "lon": -0.80401, "pop": 857 },
{ "nom": "Rives de l'Yon", "lat": 46.5830422, "lon": -1.3705953, "pop": 4335 },
{ "nom": "Rives-d'Autise", "lat": 46.4247315, "lon": -0.6789047, "pop": 2036 },
{ "nom": "Rives-du-Fougerais", "lat": 46.6200802, "lon": -0.8806691, "pop": 1500 },
{ "nom": "Rocheservière", "lat": 46.936072, "lon": -1.512859, "pop": 3594 },
{ "nom": "Rochetrejoux", "lat": 46.789705, "lon": -0.998618, "pop": 983 },
{ "nom": "Rosnay", "lat": 46.540264, "lon": -1.307819, "pop": 672 },
{ "nom": "Saint-André-Goule-d'Oie", "lat": 46.833336, "lon": -1.190386, "pop": 1960 },
{ "nom": "Saint-Aubin-des-Ormeaux", "lat": 46.991846, "lon": -1.044168, "pop": 1394 },
{ "nom": "Saint-Aubin-la-Plaine", "lat": 46.506669, "lon": -1.058759, "pop": 529 },
{ "nom": "Saint-Avaugourd-des-Landes", "lat": 46.512371, "lon": -1.483803, "pop": 1213 },
{ "nom": "Saint-Benoist-sur-Mer", "lat": 46.424339, "lon": -1.3547419, "pop": 515 },
{ "nom": "Saint-Christophe-du-Ligneron", "lat": 46.8224919, "lon": -1.762512, "pop": 2727 },
{ "nom": "Saint-Cyr-des-Gâts", "lat": 46.568428, "lon": -0.883624, "pop": 533 },
{ "nom": "Saint-Cyr-en-Talmondais", "lat": 46.46022, "lon": -1.337842, "pop": 403 },
{ "nom": "Saint-Denis-du-Payré", "lat": 46.406736, "lon": -1.267692, "pop": 434 },
{ "nom": "Saint-Denis-la-Chevasse", "lat": 46.822571, "lon": -1.360246, "pop": 2419 },
{ "nom": "Sainte-Cécile", "lat": 46.742801, "lon": -1.114426, "pop": 1575 },
{ "nom": "Sainte-Flaive-des-Loups", "lat": 46.611755, "lon": -1.577752, "pop": 2585 },
{ "nom": "Sainte-Florence", "lat": 46.797036, "lon": -1.1536151, "pop": 1359 },
{ "nom": "Sainte-Foy", "lat": 46.545832, "lon": -1.672115, "pop": 2717 },
{ "nom": "Sainte-Gemme-la-Plaine", "lat": 46.483266, "lon": -1.113742, "pop": 2084 },
{ "nom": "Sainte-Pexine", "lat": 46.561507, "lon": -1.140361, "pop": 291 },
{ "nom": "Sainte-Radégonde-des-Noyers", "lat": 46.376076, "lon": -1.0602419, "pop": 990 },
{ "nom": "Saint-Étienne-de-Brillouet", "lat": 46.525118, "lon": -1.000109, "pop": 616 },
{ "nom": "Saint-Étienne-du-Bois", "lat": 46.83085, "lon": -1.59497, "pop": 2311 },
{ "nom": "Saint-Fulgent", "lat": 46.8508593, "lon": -1.176036, "pop": 3994 },
{ "nom": "Saint-Georges-de-Pointindoux", "lat": 46.643541, "lon": -1.621754, "pop": 1870 },
{ "nom": "Saint-Germain-de-Prinçay", "lat": 46.720818, "lon": -1.020787, "pop": 1640 },
{ "nom": "Saint-Gervais", "lat": 46.902738, "lon": -1.998738, "pop": 2781 },
{ "nom": "Saint-Gilles-Croix-de-Vie", "lat": 46.697777, "lon": -1.944529, "pop": 8333 },
{ "nom": "Saint-Hilaire-de-Riez", "lat": 46.7198244, "lon": -1.9466304, "pop": 13074 },
{ "nom": "Saint-Hilaire-des-Loges", "lat": 46.471514, "lon": -0.664775, "pop": 1917 },
{ "nom": "Saint-Hilaire-de-Voust", "lat": 46.5894649, "lon": -0.6473759, "pop": 642 },
{ "nom": "Saint-Hilaire-la-Forêt", "lat": 46.447657, "lon": -1.524923, "pop": 846 },
{ "nom": "Saint-Hilaire-le-Vouhis", "lat": 46.687587, "lon": -1.131106, "pop": 1101 },
{ "nom": "Saint-Jean-de-Monts", "lat": 46.793464, "lon": -2.0617863, "pop": 8868 },
{ "nom": "Saint-Jean-d'Hermine", "lat": 46.5555107, "lon": -1.0615217, "pop": 3611 },
{ "nom": "Saint-Juire-Champgillon", "lat": 46.5810953, "lon": -1.0261086, "pop": 425 },
{ "nom": "Saint-Julien-des-Landes", "lat": 46.6400409, "lon": -1.712725, "pop": 2085 },
{ "nom": "Saint-Laurent-de-la-Salle", "lat": 46.56771, "lon": -0.91583, "pop": 398 },
{ "nom": "Saint-Laurent-sur-Sèvre", "lat": 46.9593124, "lon": -0.8910292, "pop": 3550 },
{ "nom": "Saint-Maixent-sur-Vie", "lat": 46.74086, "lon": -1.821913, "pop": 1234 },
{ "nom": "Saint-Malô-du-Bois", "lat": 46.929895, "lon": -0.902591, "pop": 1612 },
{ "nom": "Saint-Mars-la-Réorthe", "lat": 46.86262, "lon": -0.925312, "pop": 1042 },
{ "nom": "Saint-Martin-de-Fraigneau", "lat": 46.434759, "lon": -0.744905, "pop": 795 },
{ "nom": "Saint-Martin-des-Fontaines", "lat": 46.541852, "lon": -0.903094, "pop": 166 },
{ "nom": "Saint-Martin-des-Noyers", "lat": 46.721824, "lon": -1.178285, "pop": 2560 },
{ "nom": "Saint-Martin-des-Tilleuls", "lat": 46.973618, "lon": -1.049785, "pop": 1150 },
{ "nom": "Saint-Martin-Lars-en-Sainte-Hermine", "lat": 46.590806, "lon": -0.981403, "pop": 419 },
{ "nom": "Saint-Mathurin", "lat": 46.5650819, "lon": -1.713651, "pop": 2496 },
{ "nom": "Saint-Maurice-des-Noues", "lat": 46.603281, "lon": -0.720545, "pop": 642 },
{ "nom": "Saint-Maurice-le-Girard", "lat": 46.642441, "lon": -0.805903, "pop": 597 },
{ "nom": "Saint-Mesmin", "lat": 46.793922, "lon": -0.732569, "pop": 1774 },
{ "nom": "Saint-Michel-en-l'Herm", "lat": 46.352929, "lon": -1.252397, "pop": 2329 },
{ "nom": "Saint-Michel-le-Cloucq", "lat": 46.4836079, "lon": -0.751094, "pop": 1253 },
{ "nom": "Saint-Paul-en-Pareds", "lat": 46.82336, "lon": -0.986113, "pop": 1377 },
{ "nom": "Saint-Paul-Mont-Penit", "lat": 46.7980779, "lon": -1.660252, "pop": 880 },
{ "nom": "Saint-Philbert-de-Bouaine", "lat": 46.985044, "lon": -1.521408, "pop": 3653 },
{ "nom": "Saint-Pierre-du-Chemin", "lat": 46.696411, "lon": -0.699734, "pop": 1354 },
{ "nom": "Saint-Pierre-le-Vieux", "lat": 46.38661, "lon": -0.749747, "pop": 917 },
{ "nom": "Saint-Prouant", "lat": 46.758194, "lon": -0.958664, "pop": 1666 },
{ "nom": "Saint-Révérend", "lat": 46.699679, "lon": -1.83032, "pop": 1549 },
{ "nom": "Saint-Sigismond", "lat": 46.349359, "lon": -0.689006, "pop": 428 },
{ "nom": "Saint-Urbain", "lat": 46.875489, "lon": -2.007857, "pop": 2000 },
{ "nom": "Saint-Valérien", "lat": 46.527498, "lon": -0.940488, "pop": 557 },
{ "nom": "Saint-Vincent-Sterlanges", "lat": 46.7399956, "lon": -1.086197, "pop": 747 },
{ "nom": "Saint-Vincent-sur-Graon", "lat": 46.516506, "lon": -1.387621, "pop": 1615 },
{ "nom": "Saint-Vincent-sur-Jard", "lat": 46.4163414, "lon": -1.5490943, "pop": 1741 },
{ "nom": "Sallertaine", "lat": 46.860522, "lon": -1.951695, "pop": 3518 },
{ "nom": "Sérigné", "lat": 46.50146, "lon": -0.844598, "pop": 1048 },
{ "nom": "Sèvremont", "lat": 46.8332056, "lon": -0.8597031, "pop": 6385 },
{ "nom": "Sigournais", "lat": 46.706022, "lon": -0.986986, "pop": 999 },
{ "nom": "Soullans", "lat": 46.795782, "lon": -1.901805, "pop": 4654 },
{ "nom": "Tallud-Sainte-Gemme", "lat": 46.687319, "lon": -0.884611, "pop": 453 },
{ "nom": "Talmont-Saint-Hilaire", "lat": 46.4654264, "lon": -1.6192842, "pop": 8492 },
{ "nom": "Terval", "lat": 46.6611104, "lon": -0.7326167, "pop": 2147 },
{ "nom": "Thiré", "lat": 46.548157, "lon": -1.007036, "pop": 532 },
{ "nom": "Thorigny", "lat": 46.612205, "lon": -1.240848, "pop": 1275 },
{ "nom": "Tiffauges", "lat": 47.013127, "lon": -1.115797, "pop": 1544 },
{ "nom": "Treize-Septiers", "lat": 46.98589, "lon": -1.231956, "pop": 3416 },
{ "nom": "Treize-Vents", "lat": 46.921074, "lon": -0.847812, "pop": 1226 },
{ "nom": "Triaize", "lat": 46.393442, "lon": -1.198421, "pop": 1071 },
{ "nom": "Vairé", "lat": 46.602207, "lon": -1.756478, "pop": 1960 },
{ "nom": "Venansault", "lat": 46.6857012, "lon": -1.512323, "pop": 4757 },
{ "nom": "Vendrennes", "lat": 46.826842, "lon": -1.124989, "pop": 1799 },
{ "nom": "Vix", "lat": 46.364304, "lon": -0.858801, "pop": 1835 },
{ "nom": "Vouillé-les-Marais", "lat": 46.387689, "lon": -0.96265, "pop": 806 },
{ "nom": "Vouvant", "lat": 46.571937, "lon": -0.769589, "pop": 829 },
{ "nom": "Xanton-Chassenon", "lat": 46.453468, "lon": -0.6940269, "pop": 743 }
]

