[
{ "nom": "Adriers", "lat": 46.257654, "lon": 0.7986248, "pop": 698 },
{ "nom": "Amberre", "lat": 46.765842, "lon": 0.164268, "pop": 565 },
{ "nom": "Anché", "lat": 46.3441618, "lon": 0.2657301, "pop": 324 },
{ "nom": "Angles-sur-l'Anglin", "lat": 46.6953807, "lon": 0.8844299, "pop": 370 },
{ "nom": "Angliers", "lat": 46.9453147, "lon": 0.1156397, "pop": 612 },
{ "nom": "Antigny", "lat": 46.5360903, "lon": 0.854118, "pop": 550 },
{ "nom": "Antran", "lat": 46.853363, "lon": 0.542635, "pop": 1148 },
{ "nom": "Arçay", "lat": 46.9689705, "lon": 0.0123554, "pop": 343 },
{ "nom": "Archigny", "lat": 46.672901, "lon": 0.652936, "pop": 1058 },
{ "nom": "Aslonnes", "lat": 46.4424007, "lon": 0.3376526, "pop": 1136 },
{ "nom": "Asnières-sur-Blour", "lat": 46.164876, "lon": 0.8007006, "pop": 193 },
{ "nom": "Asnois", "lat": 46.112034, "lon": 0.413791, "pop": 129 },
{ "nom": "Aulnay", "lat": 46.9055341, "lon": 0.0928668, "pop": 107 },
{ "nom": "Availles-en-Châtellerault", "lat": 46.756355, "lon": 0.577808, "pop": 1730 },
{ "nom": "Availles-Limouzine", "lat": 46.1197832, "lon": 0.6553643, "pop": 1312 },
{ "nom": "Avanton", "lat": 46.663044, "lon": 0.303501, "pop": 2226 },
{ "nom": "Ayron", "lat": 46.660507, "lon": 0.075855, "pop": 1085 },
{ "nom": "Basses", "lat": 47.0366691, "lon": 0.1186669, "pop": 344 },
{ "nom": "Beaumont-Saint-Cyr", "lat": 46.7368756, "lon": 0.4321463, "pop": 2908 },
{ "nom": "Bellefonds", "lat": 46.6465382, "lon": 0.5918195, "pop": 247 },
{ "nom": "Berrie", "lat": 47.0673905, "lon": -0.068594, "pop": 251 },
{ "nom": "Berthegon", "lat": 46.8974105, "lon": 0.2612152, "pop": 259 },
{ "nom": "Béruges", "lat": 46.5677363, "lon": 0.2075584, "pop": 1528 },
{ "nom": "Béthines", "lat": 46.5471708, "lon": 0.9759838, "pop": 467 },
{ "nom": "Beuxes", "lat": 47.094632, "lon": 0.179708, "pop": 559 },
{ "nom": "Biard", "lat": 46.5762575, "lon": 0.307836, "pop": 1910 },
{ "nom": "Bignoux", "lat": 46.5992879, "lon": 0.4701289, "pop": 1087 },
{ "nom": "Blanzay", "lat": 46.201534, "lon": 0.254754, "pop": 819 },
{ "nom": "Boivre-la-Vallée", "lat": 46.5590179, "lon": 0.0720148, "pop": 3024 },
{ "nom": "Bonnes", "lat": 46.604648, "lon": 0.597928, "pop": 1688 },
{ "nom": "Bonneuil-Matours", "lat": 46.6814385, "lon": 0.5699441, "pop": 2081 },
{ "nom": "Bouresse", "lat": 46.3610082, "lon": 0.6086597, "pop": 620 },
{ "nom": "Bourg-Archambault", "lat": 46.382319, "lon": 1.0051433, "pop": 170 },
{ "nom": "Bournand", "lat": 47.0876844, "lon": 0.0779063, "pop": 914 },
{ "nom": "Brigueil-le-Chantre", "lat": 46.394334, "lon": 1.0878916, "pop": 455 },
{ "nom": "Brion", "lat": 46.3550661, "lon": 0.4610911, "pop": 224 },
{ "nom": "Brux", "lat": 46.2354538, "lon": 0.1935882, "pop": 777 },
{ "nom": "Buxerolles", "lat": 46.5993203, "lon": 0.3569282, "pop": 10289 },
{ "nom": "Buxeuil", "lat": 46.9756676, "lon": 0.6740192, "pop": 887 },
{ "nom": "Ceaux-en-Loudun", "lat": 47.0259577, "lon": 0.2380469, "pop": 560 },
{ "nom": "Celle-Lévescault", "lat": 46.426629, "lon": 0.188768, "pop": 1383 },
{ "nom": "Cenon-sur-Vienne", "lat": 46.772114, "lon": 0.537789, "pop": 1666 },
{ "nom": "Cernay", "lat": 46.833363, "lon": 0.304591, "pop": 466 },
{ "nom": "Chabournay", "lat": 46.7179166, "lon": 0.2590764, "pop": 1274 },
{ "nom": "Chalais", "lat": 46.9789634, "lon": 0.1011322, "pop": 465 },
{ "nom": "Chalandray", "lat": 46.661168, "lon": -0.002989, "pop": 784 },
{ "nom": "Champagné-le-Sec", "lat": 46.1901209, "lon": 0.1902842, "pop": 215 },
{ "nom": "Champagné-Saint-Hilaire", "lat": 46.3194806, "lon": 0.3252437, "pop": 998 },
{ "nom": "Champigny en Rochereau", "lat": 46.7084336, "lon": 0.1538159, "pop": 1878 },
{ "nom": "Champniers", "lat": 46.2171979, "lon": 0.3363448, "pop": 358 },
{ "nom": "Chapelle-Viviers", "lat": 46.4832487, "lon": 0.7262715, "pop": 551 },
{ "nom": "Charroux", "lat": 46.144503, "lon": 0.402332, "pop": 1036 },
{ "nom": "Chasseneuil-du-Poitou", "lat": 46.6505807, "lon": 0.3745606, "pop": 4743 },
{ "nom": "Châtain", "lat": 46.0736309, "lon": 0.4313952, "pop": 240 },
{ "nom": "Château-Garnier", "lat": 46.257473, "lon": 0.424763, "pop": 596 },
{ "nom": "Château-Larcher", "lat": 46.417169, "lon": 0.3133984, "pop": 1034 },
{ "nom": "Châtellerault", "lat": 46.8143948, "lon": 0.5442372, "pop": 31003 },
{ "nom": "Chaunay", "lat": 46.206155, "lon": 0.163433, "pop": 1194 },
{ "nom": "Chauvigny", "lat": 46.571149, "lon": 0.6440709, "pop": 7007 },
{ "nom": "Chenevelles", "lat": 46.7275621, "lon": 0.6530548, "pop": 435 },
{ "nom": "Cherves", "lat": 46.7174659, "lon": 0.0179446, "pop": 529 },
{ "nom": "Chiré-en-Montreuil", "lat": 46.638748, "lon": 0.125191, "pop": 922 },
{ "nom": "Chouppes", "lat": 46.8114532, "lon": 0.1638302, "pop": 802 },
{ "nom": "Cissé", "lat": 46.645114, "lon": 0.225487, "pop": 2869 },
{ "nom": "Civaux", "lat": 46.444209, "lon": 0.664866, "pop": 1210 },
{ "nom": "Civray", "lat": 46.148523, "lon": 0.295601, "pop": 2522 },
{ "nom": "Cloué", "lat": 46.4427827, "lon": 0.1643033, "pop": 490 },
{ "nom": "Colombiers", "lat": 46.772227, "lon": 0.426215, "pop": 1405 },
{ "nom": "Coulombiers", "lat": 46.483545, "lon": 0.185595, "pop": 1155 },
{ "nom": "Coulonges-les-Hérolles", "lat": 46.4014359, "lon": 1.153647, "pop": 230 },
{ "nom": "Coussay", "lat": 46.8374763, "lon": 0.2029295, "pop": 266 },
{ "nom": "Coussay-les-Bois", "lat": 46.8072225, "lon": 0.7425498, "pop": 919 },
{ "nom": "Craon", "lat": 46.772962, "lon": 0.024364, "pop": 183 },
{ "nom": "Croutelle", "lat": 46.53689, "lon": 0.2878156, "pop": 946 },
{ "nom": "Cuhon", "lat": 46.7592998, "lon": 0.0954553, "pop": 377 },
{ "nom": "Curçay-sur-Dive", "lat": 47.012832, "lon": -0.057647, "pop": 224 },
{ "nom": "Curzay-sur-Vonne", "lat": 46.4887735, "lon": 0.0435675, "pop": 380 },
{ "nom": "Dangé-Saint-Romain", "lat": 46.938193, "lon": 0.604999, "pop": 2959 },
{ "nom": "Dercé", "lat": 46.9414501, "lon": 0.21777, "pop": 162 },
{ "nom": "Dienné", "lat": 46.441529, "lon": 0.5479579, "pop": 581 },
{ "nom": "Dissay", "lat": 46.700301, "lon": 0.430684, "pop": 3101 },
{ "nom": "Doussay", "lat": 46.8432695, "lon": 0.2754329, "pop": 690 },
{ "nom": "Fleix", "lat": 46.5548936, "lon": 0.7454338, "pop": 143 },
{ "nom": "Fleuré", "lat": 46.478495, "lon": 0.519944, "pop": 1137 },
{ "nom": "Fontaine-le-Comte", "lat": 46.5338726, "lon": 0.2666808, "pop": 3972 },
{ "nom": "Frozes", "lat": 46.660038, "lon": 0.133851, "pop": 621 },
{ "nom": "Gençay", "lat": 46.374538, "lon": 0.403719, "pop": 1653 },
{ "nom": "Genouillé", "lat": 46.1071405, "lon": 0.3377494, "pop": 504 },
{ "nom": "Gizay", "lat": 46.440006, "lon": 0.4243103, "pop": 364 },
{ "nom": "Glénouze", "lat": 46.9964029, "lon": -0.0080829, "pop": 106 },
{ "nom": "Gouex", "lat": 46.368182, "lon": 0.689969, "pop": 487 },
{ "nom": "Guesnes", "lat": 46.914918, "lon": 0.16294, "pop": 239 },
{ "nom": "Haims", "lat": 46.502176, "lon": 0.918328, "pop": 228 },
{ "nom": "Ingrandes", "lat": 46.8766869, "lon": 0.564782, "pop": 1709 },
{ "nom": "Iteuil", "lat": 46.4864101, "lon": 0.3090512, "pop": 2989 },
{ "nom": "Jardres", "lat": 46.568882, "lon": 0.564932, "pop": 1250 },
{ "nom": "Jaunay-Marigny", "lat": 46.683161, "lon": 0.3705271, "pop": 7528 },
{ "nom": "Jazeneuil", "lat": 46.4636804, "lon": 0.0674021, "pop": 793 },
{ "nom": "Jouhet", "lat": 46.4912603, "lon": 0.8412077, "pop": 502 },
{ "nom": "Journet", "lat": 46.462794, "lon": 0.967811, "pop": 366 },
{ "nom": "Joussé", "lat": 46.2269896, "lon": 0.4710789, "pop": 309 },
{ "nom": "La Bussière", "lat": 46.6348651, "lon": 0.8239078, "pop": 298 },
{ "nom": "La Chapelle-Bâton", "lat": 46.1854762, "lon": 0.3945594, "pop": 354 },
{ "nom": "La Chapelle-Moulière", "lat": 46.6493026, "lon": 0.565432, "pop": 723 },
{ "nom": "La Chaussée", "lat": 46.8855676, "lon": 0.1109864, "pop": 189 },
{ "nom": "La Ferrière-Airoux", "lat": 46.3213628, "lon": 0.3924461, "pop": 334 },
{ "nom": "La Grimaudière", "lat": 46.807948, "lon": 0.017699, "pop": 392 },
{ "nom": "La Puye", "lat": 46.6425498, "lon": 0.752128, "pop": 608 },
{ "nom": "La Roche-Posay", "lat": 46.7861905, "lon": 0.8127222, "pop": 1566 },
{ "nom": "La Roche-Rigault", "lat": 46.968814, "lon": 0.178892, "pop": 565 },
{ "nom": "La Trimouille", "lat": 46.4660738, "lon": 1.0410982, "pop": 859 },
{ "nom": "La Villedieu-du-Clain", "lat": 46.4557829, "lon": 0.367687, "pop": 1512 },
{ "nom": "Lathus-Saint-Rémy", "lat": 46.333355, "lon": 0.959051, "pop": 1214 },
{ "nom": "Latillé", "lat": 46.619104, "lon": 0.075794, "pop": 1494 },
{ "nom": "Lauthiers", "lat": 46.5981161, "lon": 0.7353538, "pop": 68 },
{ "nom": "Lavoux", "lat": 46.595396, "lon": 0.529625, "pop": 1192 },
{ "nom": "Le Vigeant", "lat": 46.2247211, "lon": 0.649208, "pop": 657 },
{ "nom": "Leigné-les-Bois", "lat": 46.759656, "lon": 0.706611, "pop": 547 },
{ "nom": "Leignes-sur-Fontaine", "lat": 46.5064864, "lon": 0.7754474, "pop": 647 },
{ "nom": "Leigné-sur-Usseau", "lat": 46.9130206, "lon": 0.4721536, "pop": 451 },
{ "nom": "Lencloître", "lat": 46.8117282, "lon": 0.3266969, "pop": 2483 },
{ "nom": "Les Ormes", "lat": 46.9708686, "lon": 0.6064379, "pop": 1613 },
{ "nom": "Les Trois-Moutiers", "lat": 47.0635745, "lon": 0.0216148, "pop": 1078 },
{ "nom": "Lésigny", "lat": 46.849528, "lon": 0.765784, "pop": 524 },
{ "nom": "Leugny", "lat": 46.9093927, "lon": 0.7016716, "pop": 362 },
{ "nom": "Lhommaizé", "lat": 46.434672, "lon": 0.59723, "pop": 898 },
{ "nom": "Liglet", "lat": 46.5093989, "lon": 1.0847604, "pop": 297 },
{ "nom": "Ligugé", "lat": 46.5175934, "lon": 0.3302073, "pop": 3444 },
{ "nom": "Linazay", "lat": 46.164983, "lon": 0.182663, "pop": 216 },
{ "nom": "Liniers", "lat": 46.6110457, "lon": 0.5371857, "pop": 591 },
{ "nom": "L'Isle-Jourdain", "lat": 46.236319, "lon": 0.688192, "pop": 1126 },
{ "nom": "Lizant", "lat": 46.0842294, "lon": 0.2792887, "pop": 393 },
{ "nom": "Loudun", "lat": 47.0087198, "lon": 0.0876324, "pop": 6839 },
{ "nom": "Luchapt", "lat": 46.1754952, "lon": 0.7820712, "pop": 244 },
{ "nom": "Lusignan", "lat": 46.4350745, "lon": 0.1216652, "pop": 2544 },
{ "nom": "Lussac-les-Châteaux", "lat": 46.4018405, "lon": 0.725056, "pop": 2263 },
{ "nom": "Magné", "lat": 46.3572131, "lon": 0.3940267, "pop": 672 },
{ "nom": "Maillé", "lat": 46.67864, "lon": 0.095378, "pop": 637 },
{ "nom": "Mairé", "lat": 46.858637, "lon": 0.74897, "pop": 173 },
{ "nom": "Maisonneuve", "lat": 46.722355, "lon": 0.056011, "pop": 319 },
{ "nom": "Marçay", "lat": 46.4629713, "lon": 0.2289024, "pop": 1107 },
{ "nom": "Marigny-Chemereau", "lat": 46.4244261, "lon": 0.2135352, "pop": 603 },
{ "nom": "Marnay", "lat": 46.395569, "lon": 0.341191, "pop": 713 },
{ "nom": "Martaizé", "lat": 46.916492, "lon": 0.060126, "pop": 355 },
{ "nom": "Massognes", "lat": 46.7398633, "lon": 0.0619831, "pop": 274 },
{ "nom": "Maulay", "lat": 46.9786556, "lon": 0.2169525, "pop": 194 },
{ "nom": "Mauprévoir", "lat": 46.172497, "lon": 0.516516, "pop": 608 },
{ "nom": "Mazerolles", "lat": 46.405807, "lon": 0.686543, "pop": 834 },
{ "nom": "Mazeuil", "lat": 46.7884319, "lon": 0.0841509, "pop": 243 },
{ "nom": "Messemé", "lat": 47.0116618, "lon": 0.1775724, "pop": 243 },
{ "nom": "Mignaloux-Beauvoir", "lat": 46.5432137, "lon": 0.4135453, "pop": 5229 },
{ "nom": "Migné-Auxances", "lat": 46.6197995, "lon": 0.3115569, "pop": 6285 },
{ "nom": "Millac", "lat": 46.1894845, "lon": 0.6871931, "pop": 462 },
{ "nom": "Mirebeau", "lat": 46.786452, "lon": 0.181821, "pop": 2143 },
{ "nom": "Moncontour", "lat": 46.881816, "lon": -0.017102, "pop": 976 },
{ "nom": "Mondion", "lat": 46.9372344, "lon": 0.4847549, "pop": 120 },
{ "nom": "Montamisé", "lat": 46.620536, "lon": 0.421398, "pop": 3723 },
{ "nom": "Monthoiron", "lat": 46.732939, "lon": 0.61778, "pop": 673 },
{ "nom": "Montmorillon", "lat": 46.4229838, "lon": 0.8690776, "pop": 5821 },
{ "nom": "Monts-sur-Guesnes", "lat": 46.9185153, "lon": 0.213735, "pop": 921 },
{ "nom": "Morton", "lat": 47.108437, "lon": -0.023236, "pop": 370 },
{ "nom": "Moulismes", "lat": 46.32948, "lon": 0.8132453, "pop": 358 },
{ "nom": "Moussac", "lat": 46.2808952, "lon": 0.6872942, "pop": 436 },
{ "nom": "Mouterre-Silly", "lat": 46.9750731, "lon": 0.0465785, "pop": 602 },
{ "nom": "Mouterre-sur-Blourde", "lat": 46.2018979, "lon": 0.7543775, "pop": 170 },
{ "nom": "Naintré", "lat": 46.756561, "lon": 0.487044, "pop": 5964 },
{ "nom": "Nalliers", "lat": 46.601624, "lon": 0.867094, "pop": 302 },
{ "nom": "Nérignac", "lat": 46.294675, "lon": 0.727175, "pop": 112 },
{ "nom": "Neuville-de-Poitou", "lat": 46.6850218, "lon": 0.2447115, "pop": 5513 },
{ "nom": "Nieuil-l'Espoir", "lat": 46.482611, "lon": 0.453755, "pop": 2631 },
{ "nom": "Nouaillé-Maupertuis", "lat": 46.5034096, "lon": 0.4099816, "pop": 2975 },
{ "nom": "Nueil-sous-Faye", "lat": 46.979156, "lon": 0.281206, "pop": 217 },
{ "nom": "Orches", "lat": 46.8829196, "lon": 0.3212222, "pop": 353 },
{ "nom": "Ouzilly", "lat": 46.775858, "lon": 0.361734, "pop": 961 },
{ "nom": "Oyré", "lat": 46.8727651, "lon": 0.6284001, "pop": 962 },
{ "nom": "Paizay-le-Sec", "lat": 46.577861, "lon": 0.777186, "pop": 468 },
{ "nom": "Payroux", "lat": 46.215621, "lon": 0.485843, "pop": 461 },
{ "nom": "Persac", "lat": 46.3442992, "lon": 0.7083079, "pop": 717 },
{ "nom": "Pindray", "lat": 46.4908363, "lon": 0.8105826, "pop": 253 },
{ "nom": "Plaisance", "lat": 46.332391, "lon": 0.87274, "pop": 170 },
{ "nom": "Pleumartin", "lat": 46.737042, "lon": 0.765208, "pop": 1214 },
{ "nom": "Poitiers", "lat": 46.5797999, "lon": 0.3406173, "pop": 89916 },
{ "nom": "Port-de-Piles", "lat": 47.0023434, "lon": 0.6002958, "pop": 545 },
{ "nom": "Pouançay", "lat": 47.080265, "lon": -0.0733305, "pop": 230 },
{ "nom": "Pouant", "lat": 47.0072957, "lon": 0.269996, "pop": 407 },
{ "nom": "Pouillé", "lat": 46.538383, "lon": 0.577092, "pop": 735 },
{ "nom": "Pressac", "lat": 46.1150012, "lon": 0.5707074, "pop": 544 },
{ "nom": "Prinçay", "lat": 46.929801, "lon": 0.245696, "pop": 201 },
{ "nom": "Queaux", "lat": 46.3268499, "lon": 0.6677363, "pop": 586 },
{ "nom": "Quinçay", "lat": 46.607899, "lon": 0.235784, "pop": 2139 },
{ "nom": "Ranton", "lat": 46.9992958, "lon": -0.0294579, "pop": 204 },
{ "nom": "Raslay", "lat": 47.1107477, "lon": 0.0031869, "pop": 134 },
{ "nom": "Roches-Prémarie-Andillé", "lat": 46.4783979, "lon": 0.3693479, "pop": 2191 },
{ "nom": "Roiffé", "lat": 47.1242099, "lon": 0.0519537, "pop": 747 },
{ "nom": "Romagne", "lat": 46.2700819, "lon": 0.3018415, "pop": 801 },
{ "nom": "Rouillé", "lat": 46.4202781, "lon": 0.0402631, "pop": 2533 },
{ "nom": "Saint-Benoît", "lat": 46.5465611, "lon": 0.3431763, "pop": 7375 },
{ "nom": "Saint-Christophe", "lat": 46.9206158, "lon": 0.3715537, "pop": 279 },
{ "nom": "Saint-Clair", "lat": 46.880694, "lon": 0.063344, "pop": 209 },
{ "nom": "Sainte-Radégonde", "lat": 46.6353278, "lon": 0.7016379, "pop": 187 },
{ "nom": "Saint-Gaudent", "lat": 46.116204, "lon": 0.288249, "pop": 303 },
{ "nom": "Saint-Genest-d'Ambière", "lat": 46.818725, "lon": 0.367266, "pop": 1235 },
{ "nom": "Saint-Georges-lès-Baillargeaux", "lat": 46.6701378, "lon": 0.4007408, "pop": 4385 },
{ "nom": "Saint-Germain", "lat": 46.564652, "lon": 0.871422, "pop": 886 },
{ "nom": "Saint-Gervais-les-Trois-Clochers", "lat": 46.8998797, "lon": 0.4076529, "pop": 1310 },
{ "nom": "Saint-Jean-de-Sauves", "lat": 46.840807, "lon": 0.0922029, "pop": 1281 },
{ "nom": "Saint-Julien-l'Ars", "lat": 46.558357, "lon": 0.506634, "pop": 2880 },
{ "nom": "Saint-Laon", "lat": 46.9791251, "lon": -0.0176496, "pop": 136 },
{ "nom": "Saint-Laurent-de-Jourdes", "lat": 46.3911708, "lon": 0.5438796, "pop": 192 },
{ "nom": "Saint-Léger-de-Montbrillais", "lat": 47.072299, "lon": -0.042292, "pop": 354 },
{ "nom": "Saint-Léomer", "lat": 46.4362232, "lon": 0.9941016, "pop": 172 },
{ "nom": "Saint-Martin-la-Pallu", "lat": 46.7367325, "lon": 0.3090195, "pop": 5713 },
{ "nom": "Saint-Martin-l'Ars", "lat": 46.219473, "lon": 0.530545, "pop": 362 },
{ "nom": "Saint-Maurice-la-Clouère", "lat": 46.3791709, "lon": 0.4117713, "pop": 1290 },
{ "nom": "Saint-Pierre-de-Maillé", "lat": 46.6796469, "lon": 0.8434039, "pop": 836 },
{ "nom": "Saint-Pierre-d'Exideuil", "lat": 46.151206, "lon": 0.270516, "pop": 717 },
{ "nom": "Saint-Rémy-sur-Creuse", "lat": 46.9507417, "lon": 0.6970716, "pop": 462 },
{ "nom": "Saint-Romain", "lat": 46.2216503, "lon": 0.3653601, "pop": 386 },
{ "nom": "Saint-Sauvant", "lat": 46.359557, "lon": 0.055266, "pop": 1293 },
{ "nom": "Saint-Savin", "lat": 46.565319, "lon": 0.865195, "pop": 816 },
{ "nom": "Saint-Secondin", "lat": 46.3277829, "lon": 0.493487, "pop": 531 },
{ "nom": "Saires", "lat": 46.884905, "lon": 0.2431481, "pop": 122 },
{ "nom": "Saix", "lat": 47.1360749, "lon": -0.0002638, "pop": 250 },
{ "nom": "Sammarçolles", "lat": 47.033172, "lon": 0.145835, "pop": 648 },
{ "nom": "Sanxay", "lat": 46.4934728, "lon": -0.0077668, "pop": 548 },
{ "nom": "Saulgé", "lat": 46.3757512, "lon": 0.8767216, "pop": 1011 },
{ "nom": "Savigné", "lat": 46.1599734, "lon": 0.317385, "pop": 1256 },
{ "nom": "Savigny-Lévescault", "lat": 46.534698, "lon": 0.4737441, "pop": 1240 },
{ "nom": "Savigny-sous-Faye", "lat": 46.8703754, "lon": 0.2858934, "pop": 379 },
{ "nom": "Scorbé-Clairvaux", "lat": 46.812229, "lon": 0.413805, "pop": 2174 },
{ "nom": "Senillé-Saint-Sauveur", "lat": 46.7935898, "lon": 0.6184413, "pop": 1706 },
{ "nom": "Sérigny", "lat": 46.9060433, "lon": 0.3495557, "pop": 315 },
{ "nom": "Sèvres-Anxaumont", "lat": 46.5689967, "lon": 0.466985, "pop": 2394 },
{ "nom": "Sillars", "lat": 46.4196105, "lon": 0.7688929, "pop": 584 },
{ "nom": "Smarves", "lat": 46.5109009, "lon": 0.350252, "pop": 2941 },
{ "nom": "Sommières-du-Clain", "lat": 46.2780357, "lon": 0.3570687, "pop": 729 },
{ "nom": "Sossais", "lat": 46.8585773, "lon": 0.3838373, "pop": 409 },
{ "nom": "Surin", "lat": 46.07794, "lon": 0.3715049, "pop": 123 },
{ "nom": "Tercé", "lat": 46.5167317, "lon": 0.5636978, "pop": 1135 },
{ "nom": "Ternay", "lat": 47.0430986, "lon": -0.0535392, "pop": 189 },
{ "nom": "Thollet", "lat": 46.4210979, "lon": 1.1229611, "pop": 164 },
{ "nom": "Thurageau", "lat": 46.7682535, "lon": 0.2427519, "pop": 720 },
{ "nom": "Thuré", "lat": 46.831987, "lon": 0.459635, "pop": 2765 },
{ "nom": "Usseau", "lat": 46.875436, "lon": 0.5097739, "pop": 573 },
{ "nom": "Usson-du-Poitou", "lat": 46.2780736, "lon": 0.5281834, "pop": 1217 },
{ "nom": "Val-de-Comporté", "lat": 46.1177361, "lon": 0.2325233, "pop": 999 },
{ "nom": "Valdivienne", "lat": 46.4899251, "lon": 0.6370262, "pop": 2715 },
{ "nom": "Valence-en-Poitou", "lat": 46.2997956, "lon": 0.1819238, "pop": 4325 },
{ "nom": "Vaux-sur-Vienne", "lat": 46.9121902, "lon": 0.5619469, "pop": 538 },
{ "nom": "Vellèches", "lat": 46.941909, "lon": 0.531338, "pop": 347 },
{ "nom": "Vernon", "lat": 46.441016, "lon": 0.476754, "pop": 730 },
{ "nom": "Verrières", "lat": 46.4122604, "lon": 0.590752, "pop": 921 },
{ "nom": "Verrue", "lat": 46.862854, "lon": 0.170551, "pop": 379 },
{ "nom": "Vézières", "lat": 47.08756, "lon": 0.0993747, "pop": 340 },
{ "nom": "Vicq-sur-Gartempe", "lat": 46.7212338, "lon": 0.8621623, "pop": 658 },
{ "nom": "Villemort", "lat": 46.5515648, "lon": 0.9222331, "pop": 100 },
{ "nom": "Villiers", "lat": 46.6754085, "lon": 0.1772273, "pop": 982 },
{ "nom": "Vivonne", "lat": 46.428625, "lon": 0.2640758, "pop": 4550 },
{ "nom": "Vouillé", "lat": 46.638289, "lon": 0.167691, "pop": 3697 },
{ "nom": "Voulême", "lat": 46.0993155, "lon": 0.2319803, "pop": 390 },
{ "nom": "Voulon", "lat": 46.3567019, "lon": 0.246595, "pop": 463 },
{ "nom": "Vouneuil-sous-Biard", "lat": 46.5717138, "lon": 0.2699692, "pop": 6290 },
{ "nom": "Vouneuil-sur-Vienne", "lat": 46.718356, "lon": 0.5391629, "pop": 2277 },
{ "nom": "Vouzailles", "lat": 46.709535, "lon": 0.096086, "pop": 566 },
{ "nom": "Yversay", "lat": 46.676702, "lon": 0.217694, "pop": 611 }
]

